{"tt11858890": {"id": "tt11858890", "locations": [{"location_name": "Bangkok, Thailand", "lat": 13.7524938, "lon": 100.4935089, "location_id": "/title/tt11858890/filminglocations/lc2749017"}, {"location_name": "Pinewood Studios, Pinewood Road, Iver Heath, Iver, Buckinghamshire, England, UK", "lat": 51.5478149, "lon": -0.5315999, "location_id": "/title/tt11858890/filminglocations/lc2763749"}, {"location_name": "Siem Reap, Cambodia", "lat": 13.3617562, "lon": 103.8590321, "location_id": "/title/tt11858890/filminglocations/lc2749018"}, {"location_name": "Venice Beach, Venice, Los Angeles, California, USA", "lat": 33.97996005, "lon": -118.4687710293081, "location_id": "/title/tt11858890/filminglocations/lc3578189"}]}, "tt15009428": {"id": "tt15009428", "locations": [{"location_name": "London, England, UK", "lat": 51.5073359, "lon": -0.12765, "location_id": "/title/tt15009428/filminglocations/lc3375865"}, {"location_name": "Long Beach, California, USA", "lat": 33.7690164, "lon": -118.191604, "location_id": "/title/tt15009428/filminglocations/lc3375866"}]}, "tt17024450": {"id": "tt17024450", "locations": [{"location_name": "Venice Beach, California, USA", "lat": 33.97996005, "lon": -118.4687710293081, "location_id": "/title/tt17024450/filminglocations/lc2973962"}, {"location_name": "1725 Main St, Santa Monica, California, USA", "lat": 34.010858, "lon": -118.490391, "location_id": "/title/tt17024450/filminglocations/lc2973960"}, {"location_name": "Bank of America Plaza - 333 S Hope Street, Downtown, Los Angeles, California, USA", "lat": 34.0564764, "lon": -118.250246, "location_id": "/title/tt17024450/filminglocations/lc3493652"}, {"location_name": "100 Wilshire Blvd, Santa Monica, California, USA", "lat": 34.01684695, "lon": -118.50060128079218, "location_id": "/title/tt17024450/filminglocations/lc2973961"}, {"location_name": "Los Angeles County, California, USA", "lat": 34.3155072, "lon": -118.209681, "location_id": "/title/tt17024450/filminglocations/lc3493654"}, {"location_name": "Southern California, California, USA", "lat": 34.0218833, "lon": -118.28586662125, "location_id": "/title/tt17024450/filminglocations/lc3493653"}, {"location_name": "The Bridge, Spitzkoppe, Namibia", "lat": -21.8462106, "lon": 15.1826066, "location_id": "/title/tt17024450/filminglocations/lc3530751"}]}, "tt9224104": {"id": "tt9224104", "locations": [{"location_name": "Phuket, Thailand", "lat": 7.8847901, "lon": 98.3891503, "location_id": "/title/tt9224104/filminglocations/lc2581843"}, {"location_name": "Hong Kong, China", "lat": 22.2793278, "lon": 114.1628131, "location_id": "/title/tt9224104/filminglocations/lc2030562"}, {"location_name": "Warner Brothers Burbank Studios - 4000 Warner Boulevard, Burbank, California, USA", "lat": 34.148175, "lon": -118.338482, "location_id": "/title/tt9224104/filminglocations/lc2030561"}, {"location_name": "Helsetkopen, M\u00f8re og Romsdal, Norway", "lat": 62.06, "lon": 6.971944, "location_id": "/title/tt9224104/filminglocations/lc2030559"}, {"location_name": "Hellesylt, Norway", "lat": 62.085337, "lon": 6.8696967, "location_id": "/title/tt9224104/filminglocations/lc2030560"}]}, "tt9603212": {"id": "tt9603212", "locations": [{"location_name": "Grand Central, Birmingham, West Midlands, England, UK", "lat": 52.477830999999995, "lon": -1.8980701011575878, "location_id": "/title/tt9603212/filminglocations/lc2022366"}, {"location_name": "Rome, Lazio, Italy", "lat": 41.8933203, "lon": 12.4829321, "location_id": "/title/tt9603212/filminglocations/lc2019838"}, {"location_name": "Stoney Middleton, Derbyshire, England, UK", "lat": 53.2756112, "lon": -1.6595362, "location_id": "/title/tt9603212/filminglocations/lc2200967"}, {"location_name": "\u00c5ndalsnes, Rauma, M\u00f8re og Romsdal, Norway", "lat": 62.5681692, "lon": 7.6867621, "location_id": "/title/tt9603212/filminglocations/lc2260074"}, {"location_name": "Venice, Veneto, Italy", "lat": 45.4371908, "lon": 12.3345898, "location_id": "/title/tt9603212/filminglocations/lc1879865"}, {"location_name": "Ponte dei Conzafelzi, 30100 Venice, Veneto, Italy", "lat": 45.4383358, "lon": 12.3421131, "location_id": "/title/tt9603212/filminglocations/lc2012470"}, {"location_name": "Levisham, North Yorkshire, England, UK", "lat": 54.3041093, "lon": -0.7210256, "location_id": "/title/tt9603212/filminglocations/lc2046792"}, {"location_name": "Trollveggen, M\u00f8re og Romsdal, Norway", "lat": 62.4826699, "lon": 7.7226498, "location_id": "/title/tt9603212/filminglocations/lc2960365"}, {"location_name": "Abu Dhabi, United Arab Emirates", "lat": 24.4538352, "lon": 54.3774014, "location_id": "/title/tt9603212/filminglocations/lc2037848"}, {"location_name": "Via di S. Maria Maggiore, Rome, Lazio, Italy", "lat": 41.8973255, "lon": 12.4957563, "location_id": "/title/tt9603212/filminglocations/lc2192775"}, {"location_name": "Via dei Funari, Rome, Lazio, Italy", "lat": 41.893496, "lon": 12.479073, "location_id": "/title/tt9603212/filminglocations/lc2150989"}, {"location_name": "Via Nazionale, Rome, Lazio, Italy", "lat": 41.900078, "lon": 12.4922571, "location_id": "/title/tt9603212/filminglocations/lc2444790"}, {"location_name": "Via dei Serpenti, Rome, Lazio, Italy", "lat": 41.8980366, "lon": 12.4893047, "location_id": "/title/tt9603212/filminglocations/lc2929650"}, {"location_name": "Via del Traforo, Rome, Lazio, Italy", "lat": 41.9020905, "lon": 12.4865373, "location_id": "/title/tt9603212/filminglocations/lc2929648"}, {"location_name": "The Bullring, Birmingham, UK", "lat": 52.4779765, "lon": -1.8936259, "location_id": "/title/tt9603212/filminglocations/lc2929649"}, {"location_name": "Leighton Buzzard, Bedfordshire, UK", "lat": 51.9165794, "lon": -0.6620551, "location_id": "/title/tt9603212/filminglocations/lc2929651"}, {"location_name": "ExCel London, 1 Western Gateway, Royal Victoria Dock, London, Greater London, England, UK", "lat": 51.5077231, "lon": 0.0288119, "location_id": "/title/tt9603212/filminglocations/lc2929652"}, {"location_name": "Buttermere, Cockermouth CA, UK", "lat": 54.6607181, "lon": -3.3452574, "location_id": "/title/tt9603212/filminglocations/lc3255888"}, {"location_name": "Dubai, United Arab Emirates", "lat": 25.2653471, "lon": 55.2924914, "location_id": "/title/tt9603212/filminglocations/lc3256408"}, {"location_name": "Budapest, Hungary", "lat": 47.4978918, "lon": 19.0401609, "location_id": "/title/tt9603212/filminglocations/lc3454232"}, {"location_name": "N\u00fcrburgring Nordschleife, N\u00fcrburg, Rhineland-Palatinate, Germany", "lat": 50.33333, "lon": 6.95, "location_id": "/title/tt9603212/filminglocations/lc3530968"}]}, "tt4495098": {"id": "tt4495098", "locations": [{"location_name": "Greece", "lat": 38.9953683, "lon": 21.9877132, "location_id": "/title/tt4495098/filminglocations/lc3250288"}, {"location_name": "Thessaloniki, Greece", "lat": 40.6403167, "lon": 22.9352716, "location_id": "/title/tt4495098/filminglocations/lc2955814"}, {"location_name": "Sofia, Bulgaria", "lat": 42.6977028, "lon": 23.3217359, "location_id": "/title/tt4495098/filminglocations/lc3518052"}, {"location_name": "Toronto, Ontario, Canada", "lat": 43.6534817, "lon": -79.3839347, "location_id": "/title/tt4495098/filminglocations/lc3588049"}, {"location_name": "Montreal, Quebec, Canada", "lat": 45.5031824, "lon": -73.5698065, "location_id": "/title/tt4495098/filminglocations/lc3588050"}, {"location_name": "Paris, France", "lat": 48.8534951, "lon": 2.3483915, "location_id": "/title/tt4495098/filminglocations/lc3511151"}]}, "tt3291150": {"id": "tt3291150", "locations": [{"location_name": "Rome, Italy", "lat": 41.8933203, "lon": 12.4829321, "location_id": "/title/tt3291150/filminglocations/lc2293527"}, {"location_name": "Sydney, Australia", "lat": -33.8698439, "lon": 151.2082848, "location_id": "/title/tt3291150/filminglocations/lc2618358"}, {"location_name": "Atlanta, Georgia, USA", "lat": 33.7489924, "lon": -84.3902644, "location_id": "/title/tt3291150/filminglocations/lc2293526"}, {"location_name": "Puerto Rico", "lat": 18.2247706, "lon": -66.4858295, "location_id": "/title/tt3291150/filminglocations/lc2293525"}]}, "tt15354916": {"id": "tt15354916", "locations": [{"location_name": "Decatur, Georgia, USA", "lat": 33.7737582, "lon": -84.296069, "location_id": "/title/tt15354916/filminglocations/lc3524726"}]}, "tt15837338": {"id": "tt15837338", "locations": [{"location_name": "Dunwoody, Georgia, USA", "lat": 33.9463786, "lon": -84.3342686, "location_id": "/title/tt15837338/filminglocations/lc3524636"}, {"location_name": "New York City, New York, USA", "lat": 40.7830439, "lon": -73.9527658, "location_id": "/title/tt15837338/filminglocations/lc3524637"}, {"location_name": "Sardinia, Italy", "lat": 40.06150285, "lon": 9.09758935360066, "location_id": "/title/tt15837338/filminglocations/lc3524638"}, {"location_name": "Pinewood Studios, Iver Heath, Buckinghamshire, England, UK", "lat": 51.5524651, "lon": -0.5321619024569935, "location_id": "/title/tt15837338/filminglocations/lc3524639"}, {"location_name": "Alnwick Castle, Alnwick, Northumberland, England, UK", "lat": 55.41546099999999, "lon": -1.7065170268123597, "location_id": "/title/tt15837338/filminglocations/lc3524640"}, {"location_name": "Gloucester Cathedral, 12 College Green, Gloucester, Gloucestershire, England, UK", "lat": 51.867796150000004, "lon": -2.248465618011078, "location_id": "/title/tt15837338/filminglocations/lc3534944"}, {"location_name": "Australia House, Strand, Westminster, Greater London, England, UK", "lat": 51.5128785, "lon": -0.11559062893054399, "location_id": "/title/tt15837338/filminglocations/lc3534945"}]}, "tt9362930": {"id": "tt9362930", "locations": [{"location_name": "12 Picket Post Close, Martin's Heron, Bracknell, Berkshire, England, UK", "lat": 51.408623950000006, "lon": -0.721407625, "location_id": "/title/tt9362930/filminglocations/lc2880046"}, {"location_name": "Goathland Railway Station, Cow Wath Bank, Goathland, Whitby, North Yorkshire, England, UK", "lat": 54.405828, "lon": -0.695982, "location_id": "/title/tt9362930/filminglocations/lc2880045"}, {"location_name": "Glen Nevis, Fort William, Highland, Scotland, UK", "lat": 56.8104264, "lon": -5.079190382251048, "location_id": "/title/tt9362930/filminglocations/lc2610909"}, {"location_name": "Duke Humfrey's Library, Bodleian Library, Broad Street, Oxford, Oxfordshire, England, UK", "lat": 51.754903, "lon": -1.254312, "location_id": "/title/tt9362930/filminglocations/lc3483049"}]}, "tt8589698": {"id": "tt8589698", "locations": [{"location_name": "Durham Cathedral, The College, Durham, County Durham, England, UK", "lat": 54.77326195, "lon": -1.5763332649262018, "location_id": "/title/tt8589698/filminglocations/lc3316069"}]}, "tt15433600": {"id": "tt15433600", "locations": [{"location_name": "Leadenhall Market, Gracechurch Street, City of London, England, UK", "lat": 51.512680200000005, "lon": -0.08341182035558237, "location_id": "/title/tt15433600/filminglocations/lc2943491"}]}, "tt10366206": {"id": "tt10366206", "locations": [{"location_name": "Divinity School, Bodleian Library, Broad Street, Oxford, Oxfordshire, England, UK", "lat": 51.754903, "lon": -1.254312, "location_id": "/title/tt10366206/filminglocations/lc2338514"}, {"location_name": "Harrow School - 5 High Street, Harrow on the Hill, Harrow, Greater London, England, UK", "lat": 51.57174325, "lon": -0.3311519058273208, "location_id": "/title/tt10366206/filminglocations/lc3343656"}, {"location_name": "20 Church Street, Lacock, Chippenham, Wiltshire, England, UK", "lat": 51.2604435, "lon": -2.1820944, "location_id": "/title/tt10366206/filminglocations/lc3342996"}, {"location_name": "Iceland", "lat": 64.9841821, "lon": -18.1059013, "location_id": "/title/tt10366206/filminglocations/lc2506208"}, {"location_name": "Carrickfergus, County Antrim, Northern Ireland, UK", "lat": 54.7136165, "lon": -5.8073112, "location_id": "/title/tt10366206/filminglocations/lc3343661"}, {"location_name": "Clandeboye Estate, Bangor, County Down, Northern Ireland, UK", "lat": 54.33333, "lon": -5.75, "location_id": "/title/tt10366206/filminglocations/lc2313529"}, {"location_name": "Castle Ward, Strangford, County Down, Northern Ireland, UK", "lat": 54.364665349999996, "lon": -5.569926227192168, "location_id": "/title/tt10366206/filminglocations/lc3345607"}, {"location_name": "Belfast, County Antrim, Northern Ireland, UK", "lat": 54.596391, "lon": -5.9301829, "location_id": "/title/tt10366206/filminglocations/lc3387580"}, {"location_name": "Wells Cathedral, Wells, Somerset, England, UK", "lat": 51.2103879, "lon": -2.64353800873494, "location_id": "/title/tt10366206/filminglocations/lc3350589"}, {"location_name": "Walt Disney Feature Animation - 500 S. Buena Vista Street, Burbank, California, USA", "lat": 34.156874, "lon": -118.325027, "location_id": "/title/tt10366206/filminglocations/lc3402944"}, {"location_name": "North Yorkshire Moors Railway, 12 Park Street, Pickering, North Yorkshire, England, UK", "lat": 53.78268315, "lon": -1.06704461388434, "location_id": "/title/tt10366206/filminglocations/lc3452325"}, {"location_name": "North York Moors Railway, North Yorkshire, England, UK", "lat": 54.41667, "lon": -0.75, "location_id": "/title/tt10366206/filminglocations/lc3457497"}, {"location_name": "Bamburgh Castle, Bamburgh, Northumberland, England, UK", "lat": 55.60944395, "lon": -1.7112670801185126, "location_id": "/title/tt10366206/filminglocations/lc3386639"}, {"location_name": "Holy Island of Lindisfarne, Berwick-upon-Tweed, Northumberland, England, UK", "lat": 55.7692442, "lon": -2.0026472, "location_id": "/title/tt10366206/filminglocations/lc3452326"}, {"location_name": "Marsala, Trapani, Sicily, Italy", "lat": 37.7979221, "lon": 12.4342091, "location_id": "/title/tt10366206/filminglocations/lc3386638"}, {"location_name": "Glasgow, Scotland, UK", "lat": 55.861155, "lon": -4.2501687, "location_id": "/title/tt10366206/filminglocations/lc3466829"}, {"location_name": "Cefal\u00f9, Palermo, Sicily, Italy", "lat": 38.034957, "lon": 14.0244562, "location_id": "/title/tt10366206/filminglocations/lc3386641"}, {"location_name": "Ear of Dionysius, Via Ettore Romagnoli, Siracusa, Sicily, Italy", "lat": 37.0767088, "lon": 15.278939, "location_id": "/title/tt10366206/filminglocations/lc3386640"}]}, "tt4873118": {"id": "tt4873118", "locations": [{"location_name": "St. Vincent Street, Glasgow, Glasgow City, Scotland, UK", "lat": 55.8630327, "lon": -4.2712298, "location_id": "/title/tt4873118/filminglocations/lc2506010"}, {"location_name": "Castellammare del Golfo, Trapani, Sicily, Italy", "lat": 38.018846, "lon": 12.885837, "location_id": "/title/tt4873118/filminglocations/lc2615535"}, {"location_name": "Parnie Street, Glasgow, Glasgow City, Scotland, UK", "lat": 55.8564003, "lon": -4.2461675, "location_id": "/title/tt4873118/filminglocations/lc2577770"}, {"location_name": "Tempio di Segesta, Segesta, Calatafimi-Segesta, Trapani, Sicily, Italy", "lat": 37.9496202, "lon": 12.8282195, "location_id": "/title/tt4873118/filminglocations/lc3428575"}, {"location_name": "Melrose, Scotland, UK", "lat": 55.5975944, "lon": -2.7199682, "location_id": "/title/tt4873118/filminglocations/lc3401003"}, {"location_name": "Tonnara del Secco, Zarbo di Mare, San Vito Lo Capo, Trapani, Sicily, Italy", "lat": 38.1673357, "lon": 12.768905, "location_id": "/title/tt4873118/filminglocations/lc3401002"}, {"location_name": "Leaderfoot Viaduct, Melrose, Scottish Borders, Scotland, UK", "lat": 55.6055928, "lon": -2.6775083, "location_id": "/title/tt4873118/filminglocations/lc3437046"}, {"location_name": "Wadi Rum, Jordan", "lat": 29.5704403, "lon": 35.4225213, "location_id": "/title/tt4873118/filminglocations/lc3437047"}]}, "tt2906216": {"id": "tt2906216", "locations": [{"location_name": "Stadlandet, Norway", "lat": 62.1019744, "lon": 5.3068003, "location_id": "/title/tt2906216/filminglocations/lc2615906"}, {"location_name": "Liwa Oasis, Abu Dhabi, United Arab Emirates", "lat": 24.413778100000002, "lon": 54.59007302161599, "location_id": "/title/tt2906216/filminglocations/lc2235982"}, {"location_name": "Austria", "lat": 47.59397, "lon": 14.12456, "location_id": "/title/tt2906216/filminglocations/lc2678135"}, {"location_name": "Slovakia", "lat": 48.7411522, "lon": 19.4528646, "location_id": "/title/tt2906216/filminglocations/lc2707036"}, {"location_name": "Landschaftspark, Duisburg, North Rhine-Westphalia, Germany", "lat": 51.476071250000004, "lon": 6.764408079513304, "location_id": "/title/tt2906216/filminglocations/lc2136770"}, {"location_name": "Wroclaw, Dolnoslaskie, Poland", "lat": 51.097349, "lon": 17.023978, "location_id": "/title/tt2906216/filminglocations/lc3373034"}, {"location_name": "Berlin, Germany", "lat": 52.5170365, "lon": 13.3888599, "location_id": "/title/tt2906216/filminglocations/lc3372847"}]}, "tt6791350": {"id": "tt6791350", "locations": [{"location_name": "Krematorium Baumschulenweg, Berlin, Germany", "lat": 52.45957265, "lon": 13.491205154678466, "location_id": "/title/tt6791350/filminglocations/lc2121931"}, {"location_name": "Olympiastadion, Charlottenburg, Berlin, Germany", "lat": 52.5145846, "lon": 13.239814417756278, "location_id": "/title/tt6791350/filminglocations/lc2121932"}, {"location_name": "V\u00f6lkerschlachtdenkmal, Leipzig, Sachsen, Germany", "lat": 51.3124744, "lon": 12.413515851638085, "location_id": "/title/tt6791350/filminglocations/lc3389010"}, {"location_name": "Britzer Garten, Berlin, Germany", "lat": 52.43335765, "lon": 13.41687681927067, "location_id": "/title/tt6791350/filminglocations/lc3389008"}, {"location_name": "Altes Museum, Berlin, Germany", "lat": 52.519455449999995, "lon": 13.398787286532126, "location_id": "/title/tt6791350/filminglocations/lc3389009"}, {"location_name": "Calgary, Alberta, Canada", "lat": 51.0456064, "lon": -114.0575418, "location_id": "/title/tt6791350/filminglocations/lc3389011"}]}, "tt1462764": {"id": "tt1462764", "locations": [{"location_name": "Lethbridge, Alberta, Canada", "lat": 49.6945782, "lon": -112.8331033, "location_id": "/title/tt1462764/filminglocations/lc2974743"}, {"location_name": "Nanton, Alberta, Canada", "lat": 50.354074, "lon": -113.781067, "location_id": "/title/tt1462764/filminglocations/lc2220968"}, {"location_name": "Canmore, Alberta, Canada", "lat": 51.0866897, "lon": -115.3481135, "location_id": "/title/tt1462764/filminglocations/lc2221853"}, {"location_name": "Westin Bonaventure Hotel & Suites - 404 S. Figueroa Street, Downtown, Los Angeles, California, USA", "lat": 34.0520645, "lon": -118.255924, "location_id": "/title/tt1462764/filminglocations/lc3066942"}, {"location_name": "Okotoks, Alberta, Canada", "lat": 50.7253685, "lon": -113.975082, "location_id": "/title/tt1462764/filminglocations/lc2221854"}, {"location_name": "Sony Pictures Studios - 10202 W. Washington Blvd., Culver City, California, USA", "lat": 34.016999, "lon": -118.403816, "location_id": "/title/tt1462764/filminglocations/lc2303438"}, {"location_name": "Altadena, California, USA", "lat": 34.197486, "lon": -118.138961, "location_id": "/title/tt1462764/filminglocations/lc3345885"}, {"location_name": "Torrance, California, USA", "lat": 33.8358492, "lon": -118.3406288, "location_id": "/title/tt1462764/filminglocations/lc3443187"}, {"location_name": "Longview, Alberta, Canada", "lat": 50.532999, "lon": -114.230784, "location_id": "/title/tt1462764/filminglocations/lc3443189"}, {"location_name": "1525 Industrial St, Los Angeles, California, USA", "lat": 34.036156, "lon": -118.237481, "location_id": "/title/tt1462764/filminglocations/lc3445139"}, {"location_name": "Cheyenne Mountain Complex, Colorado, USA", "lat": 38.73893295, "lon": -104.84255424976142, "location_id": "/title/tt1462764/filminglocations/lc3445140"}, {"location_name": "130 St Vincent Street, Glasgow, Scotland, UK", "lat": 55.86188025, "lon": -4.257878922057468, "location_id": "/title/tt1462764/filminglocations/lc3445282"}, {"location_name": "St Paul's Churchyard, London, England, UK", "lat": 51.47963585, "lon": -0.024356480222337173, "location_id": "/title/tt1462764/filminglocations/lc3443188"}, {"location_name": "Senate House, Malet Street, London, England, UK", "lat": 51.5213615, "lon": -0.1285754, "location_id": "/title/tt1462764/filminglocations/lc3444884"}, {"location_name": "Waltham Cross, Hertfordshire, England, UK", "lat": 51.6857829, "lon": -0.0330001, "location_id": "/title/tt1462764/filminglocations/lc3445141"}, {"location_name": "77 Charterhouse Street, Clerkenwell, London, England, UK", "lat": 51.5203924, "lon": -0.1004944, "location_id": "/title/tt1462764/filminglocations/lc3445138"}]}, "tt1160419": {"id": "tt1160419", "locations": [{"location_name": "Burghley House, Stamford, England, UK", "lat": 52.6425003, "lon": -0.45230320487022024, "location_id": "/title/tt1160419/filminglocations/lc1716685"}, {"location_name": "Hatfield House, Hatfield, Hertfordshire, England, UK", "lat": 51.7605139, "lon": -0.20879851305478084, "location_id": "/title/tt1160419/filminglocations/lc1837497"}, {"location_name": "Knebworth House, Knebworth, England, UK", "lat": 51.8728538, "lon": -0.2148134542252233, "location_id": "/title/tt1160419/filminglocations/lc1812349"}, {"location_name": "Vila Real, Portugal", "lat": 41.3021183, "lon": -7.744898, "location_id": "/title/tt1160419/filminglocations/lc1691585"}, {"location_name": "Viseu, Portugal", "lat": 40.6574713, "lon": -7.9138664, "location_id": "/title/tt1160419/filminglocations/lc2306639"}, {"location_name": "Lisboa, Portugal", "lat": 38.7077507, "lon": -9.1365919, "location_id": "/title/tt1160419/filminglocations/lc2306637"}, {"location_name": "Turin, Italy", "lat": 45.0677551, "lon": 7.6824892, "location_id": "/title/tt1160419/filminglocations/lc1837498"}, {"location_name": "Cabril dam, Portugal", "lat": 39.91739595, "lon": -8.13126718374037, "location_id": "/title/tt1160419/filminglocations/lc2306638"}, {"location_name": "Presa de aldead\u00e1vila, Salamanca, Castilla y Le\u00f3n, Spain", "lat": 41.21163145, "lon": -6.686185681370011, "location_id": "/title/tt1160419/filminglocations/lc2306640"}, {"location_name": "Bray, Ireland", "lat": 53.20122935, "lon": -6.106950097366967, "location_id": "/title/tt1160419/filminglocations/lc1837499"}, {"location_name": "Wicklow County, Ireland", "lat": 52.980449, "lon": -6.050339, "location_id": "/title/tt1160419/filminglocations/lc2779484"}, {"location_name": "Coos Bay, Oregon, USA", "lat": 43.3678937, "lon": -124.2174647, "location_id": "/title/tt1160419/filminglocations/lc2779485"}]}, "tt10545296": {"id": "tt10545296", "locations": [{"location_name": "Gold Beach, Oregon, USA", "lat": 42.4074459, "lon": -124.4217418, "location_id": "/title/tt10545296/filminglocations/lc2914082"}, {"location_name": "Agness, Oregon, USA", "lat": 42.5565, "lon": -124.06898, "location_id": "/title/tt10545296/filminglocations/lc2953520"}, {"location_name": "Brookings, Oregon, USA", "lat": 42.056447, "lon": -124.283767, "location_id": "/title/tt10545296/filminglocations/lc3013457"}, {"location_name": "Vernon Parish, Louisiana, USA", "lat": 31.123862, "lon": -93.184181, "location_id": "/title/tt10545296/filminglocations/lc3386657"}, {"location_name": "New Orleans, Louisiana, USA", "lat": 29.9759983, "lon": -90.0782127, "location_id": "/title/tt10545296/filminglocations/lc3386659"}, {"location_name": "Covington, Louisiana, USA", "lat": 30.4753525, "lon": -90.1010474, "location_id": "/title/tt10545296/filminglocations/lc2913915"}, {"location_name": "New Sarpy, Louisiana, USA", "lat": 29.985983, "lon": -90.376007, "location_id": "/title/tt10545296/filminglocations/lc3386009"}, {"location_name": "Chicago, Illinois, USA", "lat": 41.8755616, "lon": -87.6244212, "location_id": "/title/tt10545296/filminglocations/lc3386658"}, {"location_name": "St Charles, Illinois, USA", "lat": 41.9139808, "lon": -88.3128183, "location_id": "/title/tt10545296/filminglocations/lc3429548"}, {"location_name": "Dominican Republic", "lat": 19.0974031, "lon": -70.3028026, "location_id": "/title/tt10545296/filminglocations/lc3429549"}, {"location_name": "Lincoln, Lincolnshire, England, UK", "lat": 53.2293545, "lon": -0.5404819, "location_id": "/title/tt10545296/filminglocations/lc3444962"}, {"location_name": "Woodstock, Oxfordshire, England, UK", "lat": 51.856462, "lon": -1.347822, "location_id": "/title/tt10545296/filminglocations/lc3444963"}, {"location_name": "Kalkara, Malta", "lat": 35.8898771, "lon": 14.5290867, "location_id": "/title/tt10545296/filminglocations/lc3444964"}]}, "tt0455944": {"id": "tt0455944", "locations": [{"location_name": "Vancouver, British Columbia, Canada", "lat": 49.2608724, "lon": -123.113952, "location_id": "/title/tt0455944/filminglocations/lc0745212"}, {"location_name": "Font's Point, Anza-Borrego State Park, California, USA", "lat": 33.187552, "lon": -116.316199, "location_id": "/title/tt0455944/filminglocations/lc0746193"}, {"location_name": "San Fernando Majers Coin Laundry - 260 S Meyer St, San Fernando, California, USA", "lat": 34.289497, "lon": -118.4493, "location_id": "/title/tt0455944/filminglocations/lc0757589"}, {"location_name": "Elysian Park, Los Angeles, California, USA", "lat": 34.08289815, "lon": -118.23441344019174, "location_id": "/title/tt0455944/filminglocations/lc0915923"}, {"location_name": "The Los Angeles Theatre, 615 S. Broadway, Los Angeles, California, USA", "lat": 34.046343, "lon": -118.252547, "location_id": "/title/tt0455944/filminglocations/lc0756464"}, {"location_name": "Saint Vibiana Cathedral - 114 East 2nd Street, Los Angeles, California, USA", "lat": 34.050562, "lon": -118.244127, "location_id": "/title/tt0455944/filminglocations/lc0892696"}, {"location_name": "Altivole, Treviso, Italy", "lat": 45.7540029, "lon": 11.9553621, "location_id": "/title/tt0455944/filminglocations/lc0742218"}, {"location_name": "Ouarzazate, Morocco", "lat": 30.920193, "lon": -6.910923, "location_id": "/title/tt0455944/filminglocations/lc1222253"}, {"location_name": "Bourne Wood, Farnham, Surrey, England, UK", "lat": 51.192222349999994, "lon": -0.7752955707168234, "location_id": "/title/tt0455944/filminglocations/lc0746192"}, {"location_name": "Val d'Orcia, Siena, Tuscany, Italy", "lat": 42.94484095, "lon": 11.718749450542937, "location_id": "/title/tt0455944/filminglocations/lc1222254"}, {"location_name": "Alabama Hills, Lone Pine, California, USA", "lat": 36.5677117, "lon": -118.0898097, "location_id": "/title/tt0455944/filminglocations/lc1747956"}, {"location_name": "Ait Benhaddou, Morocco", "lat": 31.0451122, "lon": -7.1310323, "location_id": "/title/tt0455944/filminglocations/lc1222252"}, {"location_name": "Pienza, Siena, Tuscany, Italy", "lat": 43.0765485, "lon": 11.6789076, "location_id": "/title/tt0455944/filminglocations/lc1222251"}]}, "tt1633359": {"id": "tt1633359", "locations": [{"location_name": "Wellington, New Zealand", "lat": -41.2887953, "lon": 174.7772114, "location_id": "/title/tt1633359/filminglocations/lc2227126"}, {"location_name": "Kaitoke Regional Park, Wellington Region, New Zealand", "lat": -41.067955, "lon": 175.1971239, "location_id": "/title/tt1633359/filminglocations/lc2227127"}]}, "tt0439572": {"id": "tt0439572", "locations": [{"location_name": "Queenstown, Otago, New Zealand", "lat": -45.0321923, "lon": 168.661, "location_id": "/title/tt0439572/filminglocations/lc2243834"}, {"location_name": "Fernside, Featherston, Wairarapa, New Zealand", "lat": -41.0885537, "lon": 175.3505731, "location_id": "/title/tt0439572/filminglocations/lc2226620"}, {"location_name": "Milford Sound, Fiordland National Park, Southland, New Zealand", "lat": -45.1988383, "lon": 167.8223691, "location_id": "/title/tt0439572/filminglocations/lc2243835"}, {"location_name": "Port Waikato, Waikato, New Zealand", "lat": -37.3913264, "lon": 174.717334, "location_id": "/title/tt0439572/filminglocations/lc2244318"}, {"location_name": "Rangipo Desert, Waiouru, Tongariro National Park, Central Plateau, New Zealand", "lat": -39.464289699999995, "lon": 175.67310233566945, "location_id": "/title/tt0439572/filminglocations/lc2646574"}, {"location_name": "Rangitikei River, Manawatu-Wanganui, New Zealand", "lat": -39.7665195, "lon": 175.8152587, "location_id": "/title/tt0439572/filminglocations/lc3434640"}, {"location_name": "Lake Wakatipu, Queenstown, Otago, New Zealand", "lat": -45.08880415, "lon": 168.52111077909876, "location_id": "/title/tt0439572/filminglocations/lc3434635"}, {"location_name": "Canterbury, New Zealand", "lat": -43.49417615, "lon": 171.8098447584145, "location_id": "/title/tt0439572/filminglocations/lc3434638"}, {"location_name": "South Island, New Zealand", "lat": -36.72819, "lon": 174.94019, "location_id": "/title/tt0439572/filminglocations/lc3434639"}]}, "tt15314262": {"id": "tt15314262", "locations": [{"location_name": "Harcourt Park, Upper Hutt, Wellington, New Zealand", "lat": -41.10165085, "lon": 175.09427325890724, "location_id": "/title/tt15314262/filminglocations/lc3127473"}, {"location_name": "Camperdown Studios, Camperdown Road, Miramar, Wellington, New Zealand", "lat": -41.306479, "lon": 174.823436, "location_id": "/title/tt15314262/filminglocations/lc2976972"}]}, "tt1877830": {"id": "tt1877830", "locations": [{"location_name": "Mavora Lakes, Southland, New Zealand", "lat": -45.295239, "lon": 168.175019, "location_id": "/title/tt1877830/filminglocations/lc1889078"}, {"location_name": "Twizel, Canterbury, New Zealand", "lat": -44.257483, "lon": 170.0994145, "location_id": "/title/tt1877830/filminglocations/lc2015222"}, {"location_name": "Te Anau, Southland District, Southland, New Zealand", "lat": -45.41449, "lon": 167.717489, "location_id": "/title/tt1877830/filminglocations/lc1889629"}, {"location_name": "Paradise, Glenorchy, Otago, New Zealand", "lat": -44.8232298, "lon": 168.3985849, "location_id": "/title/tt1877830/filminglocations/lc2315421"}, {"location_name": "Abel Tasman National Park, South Island, Tasman Region, New Zealand", "lat": -40.91222, "lon": 172.97012, "location_id": "/title/tt1877830/filminglocations/lc2045562"}, {"location_name": "Otaki Gorge Road, Kapiti Coast District, North Island, New Zealand", "lat": -40.7864889, "lon": 175.1624474, "location_id": "/title/tt1877830/filminglocations/lc2045061"}, {"location_name": "Kepler Mire, Te Anau, South Island, New Zealand", "lat": -45.44021, "lon": 167.68599, "location_id": "/title/tt1877830/filminglocations/lc1870027"}, {"location_name": "Fort Dorset, Miramar, Wellington, New Zealand", "lat": -41.3289876, "lon": 174.8360946, "location_id": "/title/tt1877830/filminglocations/lc2044453"}, {"location_name": "Hutt Valley, Wellington, New Zealand", "lat": -41.1485427, "lon": 174.9919508, "location_id": "/title/tt1877830/filminglocations/lc2609772"}, {"location_name": "Waitarere Forest, Horowhenua District, North Island, New Zealand", "lat": -39, "lon": 176, "location_id": "/title/tt1877830/filminglocations/lc2044989"}, {"location_name": "Upper Waiau River, Fiordland National Park, South Island, New Zealand", "lat": -43, "lon": 171, "location_id": "/title/tt1877830/filminglocations/lc2609903"}, {"location_name": "Fortress Mountain, Kananaskis Country, Alberta, Canada", "lat": 50.819333900000004, "lon": -115.20942891171117, "location_id": "/title/tt1877830/filminglocations/lc2159470"}, {"location_name": "Tangier, Morocco", "lat": 35.7774341, "lon": -5.8032309, "location_id": "/title/tt1877830/filminglocations/lc1865827"}, {"location_name": "Shizuoka, Japan", "lat": 34.9332488, "lon": 138.0955398, "location_id": "/title/tt1877830/filminglocations/lc2672453"}, {"location_name": "Tokyo, Japan", "lat": 35.736231, "lon": 139.548956, "location_id": "/title/tt1877830/filminglocations/lc2672464"}, {"location_name": "Da Stuzzi Delicatessen, 6 Rue C\u00e9sar Franck, Paris 15, France", "lat": 48.658188, "lon": 6.180564, "location_id": "/title/tt1877830/filminglocations/lc2672546"}, {"location_name": "Kananaskis Village, Kananaskis Country, Alberta, Canada", "lat": 50.91566, "lon": -115.14373, "location_id": "/title/tt1877830/filminglocations/lc1777147"}, {"location_name": "Pont de Bir-Hakeim, Paris, France", "lat": 48.8549055, "lon": 2.2884924, "location_id": "/title/tt1877830/filminglocations/lc1868408"}, {"location_name": "Bedford, Bedfordshire, England, UK", "lat": 52.1363806, "lon": -0.4675041, "location_id": "/title/tt1877830/filminglocations/lc2791496"}, {"location_name": "Spring Street, Downtown, Los Angeles, California, USA", "lat": 34.0577952, "lon": -118.2399411, "location_id": "/title/tt1877830/filminglocations/lc2791497"}, {"location_name": "Cardington Airship Hangars, Bedfordshire, England, UK", "lat": 52.1248304, "lon": -0.4416472, "location_id": "/title/tt1877830/filminglocations/lc2609797"}, {"location_name": "University College London, Bloomsbury, London, England, UK", "lat": 51.52420305, "lon": -0.13300072425929543, "location_id": "/title/tt1877830/filminglocations/lc2609770"}, {"location_name": "Commodore Schuyler F. Heim Bridge, Port of Los Angeles, Los Angeles, California, USA", "lat": 33.765952, "lon": -118.239536, "location_id": "/title/tt1877830/filminglocations/lc2791495"}, {"location_name": "Farnborough Airfield, Hampshire, England, UK", "lat": 51.280540099999996, "lon": -0.7960229616454089, "location_id": "/title/tt1877830/filminglocations/lc2791491"}, {"location_name": "Rancho Palos Verdes, California, USA", "lat": 33.7483311, "lon": -118.3707683, "location_id": "/title/tt1877830/filminglocations/lc2791493"}, {"location_name": "Rue Bouchut, Paris 15, Paris, France", "lat": 48.8306258, "lon": 2.3174534434015484, "location_id": "/title/tt1877830/filminglocations/lc2791515"}, {"location_name": "John Ferraro Building, 111 North Hope Street, Los Angeles, California, USA", "lat": 34.058127999999996, "lon": -118.24952473234083, "location_id": "/title/tt1877830/filminglocations/lc2791500"}, {"location_name": "Stage 16, Warner Brothers Burbank Studios - 4000 Warner Boulevard, Burbank, California, USA", "lat": 34.148175, "lon": -118.338482, "location_id": "/title/tt1877830/filminglocations/lc2791505"}, {"location_name": "Pasadena, California, USA", "lat": 34.1476507, "lon": -118.1441551, "location_id": "/title/tt1877830/filminglocations/lc2791506"}, {"location_name": "1240 S Hope St, Los Angeles, California, USA", "lat": 34.03994, "lon": -118.265, "location_id": "/title/tt1877830/filminglocations/lc2791499"}, {"location_name": "Falls Lake, Backlot, Universal Studios - 100 Universal City Plaza, Universal City, California, USA", "lat": 34.138586, "lon": -118.355735, "location_id": "/title/tt1877830/filminglocations/lc2791488"}, {"location_name": "453 S Spring St, Los Angeles, California, USA", "lat": 34.04778, "lon": -118.24948, "location_id": "/title/tt1877830/filminglocations/lc2791489"}, {"location_name": "Los Angeles Department of Water and Power -111 N Hope St Los Angeles, California, USA", "lat": 34.058127999999996, "lon": -118.24952473234083, "location_id": "/title/tt1877830/filminglocations/lc2791490"}, {"location_name": "Cuzco, Peru", "lat": -13.5170887, "lon": -71.9785356, "location_id": "/title/tt1877830/filminglocations/lc2791492"}, {"location_name": "Sun Life Building, 1155 rue Metcalfe, Montreal, Quebec, Canada", "lat": 45.5001129, "lon": -73.5706669, "location_id": "/title/tt1877830/filminglocations/lc2791494"}, {"location_name": "Tarapoto, Peru", "lat": -6.4877198, "lon": -76.3598708, "location_id": "/title/tt1877830/filminglocations/lc2791510"}, {"location_name": "Mels 2-3 / Technoparc, 1777 Carrie-Derick, Montreal, Quebec, Canada", "lat": 45.4769436, "lon": -73.5427146, "location_id": "/title/tt1877830/filminglocations/lc2791507"}]}, "tt4779682": {"id": "tt4779682", "locations": [{"location_name": "1 Place Ville Marie, Montreal, Quebec, Canada", "lat": 45.501647, "lon": -73.568622, "location_id": "/title/tt4779682/filminglocations/lc1263357"}]}, "tt5433140": {"id": "tt5433140", "locations": [{"location_name": "Albuquerque, New Mexico, USA", "lat": 35.128683, "lon": -106.579128, "location_id": "/title/tt5433140/filminglocations/lc2836918"}, {"location_name": "Stone Street Studios, Wellington, New Zealand", "lat": -41.31771955, "lon": 174.81302385706002, "location_id": "/title/tt5433140/filminglocations/lc2788285"}, {"location_name": "MBS Media Campus - 1600 Rosecrans Avenue, Manhattan Beach, California, USA", "lat": 33.89868975, "lon": -118.38373379038384, "location_id": "/title/tt5433140/filminglocations/lc2788286"}, {"location_name": "Steall Falls, Glen Nevis, Highland, Scotland, UK", "lat": 56.7702419, "lon": -4.9798298, "location_id": "/title/tt5433140/filminglocations/lc2788287"}, {"location_name": "New College, Holywell Street, Oxford, Oxfordshire, England, UK", "lat": 51.754742449999995, "lon": -1.252241620594331, "location_id": "/title/tt5433140/filminglocations/lc2752143"}, {"location_name": "Eastbourne, East Sussex, England, UK", "lat": 50.7664372, "lon": 0.2781546, "location_id": "/title/tt5433140/filminglocations/lc2714144"}, {"location_name": "Shepperton Studios, Shepperton, Surrey, England, UK", "lat": 51.4071205, "lon": -0.464713677756921, "location_id": "/title/tt5433140/filminglocations/lc3398061"}, {"location_name": "Virginia Water, Surrey, England, UK", "lat": 51.4033624, "lon": -0.5661711, "location_id": "/title/tt5433140/filminglocations/lc2703975"}, {"location_name": "Tropea, Italy", "lat": 38.675379, "lon": 15.894792, "location_id": "/title/tt5433140/filminglocations/lc2703976"}, {"location_name": "Calabria, Italy", "lat": 39.0565974, "lon": 16.5249864, "location_id": "/title/tt5433140/filminglocations/lc3404715"}, {"location_name": "New Jersey, New Jersey, USA", "lat": 40.0155412, "lon": -74.8280828, "location_id": "/title/tt5433140/filminglocations/lc3432025"}, {"location_name": "Tyrrhenian Sea", "lat": 39.9999743, "lon": 11.9999826, "location_id": "/title/tt5433140/filminglocations/lc3434654"}]}, "tt12261776": {"id": "tt12261776", "locations": [{"location_name": "Seoul, South Korea", "lat": 37.5666791, "lon": 126.9782914, "location_id": "/title/tt12261776/filminglocations/lc3106492"}, {"location_name": "G\u00f6rlitz, Saxony, Germany", "lat": 51.1563185, "lon": 14.991018, "location_id": "/title/tt12261776/filminglocations/lc3106493"}, {"location_name": "Brasserie La Renaissance, 112 rue Championnet, Paris 18, Paris, France", "lat": 48.895825, "lon": 2.33973, "location_id": "/title/tt12261776/filminglocations/lc2149669"}, {"location_name": "Studio Babelsberg, Potsdam, Brandenburg, Germany", "lat": 52.381929650000004, "lon": 13.113676759028799, "location_id": "/title/tt12261776/filminglocations/lc2242315"}, {"location_name": "R\u00fcdersdorf, Brandenburg, Germany", "lat": 52.471293, "lon": 13.784527, "location_id": "/title/tt12261776/filminglocations/lc3106494"}, {"location_name": "Bad Schandau, Saxony, Germany", "lat": 50.918091, "lon": 14.1534018, "location_id": "/title/tt12261776/filminglocations/lc2776029"}, {"location_name": "Fort Hahneberg, Berlin, Germany", "lat": 52.521930600000005, "lon": 13.137729308340758, "location_id": "/title/tt12261776/filminglocations/lc2776030"}, {"location_name": "Nauen, Brandenburg, Germany", "lat": 52.6061065, "lon": 12.8772599, "location_id": "/title/tt12261776/filminglocations/lc2776024"}, {"location_name": "Sebnitz, Saxony, Germany", "lat": 50.97098, "lon": 14.2727203, "location_id": "/title/tt12261776/filminglocations/lc2159791"}, {"location_name": "Krampnitz, Brandenburg, Germany", "lat": 52.46174, "lon": 13.04438, "location_id": "/title/tt12261776/filminglocations/lc2776025"}, {"location_name": "Marlene-Dietrich-Halle, Studio Babelsberg, Potsdam, Brandenburg, Germany", "lat": 52.38710845, "lon": 13.119691170567224, "location_id": "/title/tt12261776/filminglocations/lc2776026"}, {"location_name": "Shelby, North Carolina, USA", "lat": 35.2923513, "lon": -81.5356463, "location_id": "/title/tt12261776/filminglocations/lc2776027"}, {"location_name": "Pisgah National Forest, North Carolina, USA", "lat": 35.25428, "lon": -82.70012, "location_id": "/title/tt12261776/filminglocations/lc2776028"}]}, "tt0468569": {"id": "tt0468569", "locations": [{"location_name": "Asheville, North Carolina, USA", "lat": 35.595076, "lon": -82.5528478, "location_id": "/title/tt0468569/filminglocations/lc0733564"}, {"location_name": "Concord, North Carolina, USA", "lat": 35.4094178, "lon": -80.5800049, "location_id": "/title/tt0468569/filminglocations/lc0314523"}, {"location_name": "Charlotte, North Carolina, USA", "lat": 35.2272086, "lon": -80.8430827, "location_id": "/title/tt0468569/filminglocations/lc0314518"}, {"location_name": "Hildebran, North Carolina, USA", "lat": 35.715167, "lon": -81.422408, "location_id": "/title/tt0468569/filminglocations/lc0314544"}, {"location_name": "Knight Theatre, Charlotte, North Carolina, USA", "lat": 35.22490315, "lon": -80.84787164862959, "location_id": "/title/tt0468569/filminglocations/lc0314540"}, {"location_name": "North Fork Reservoir, North Carolina, USA", "lat": 36.16256, "lon": -78.941032, "location_id": "/title/tt0468569/filminglocations/lc0314542"}, {"location_name": "Black Mountain, North Carolina, USA", "lat": 35.6176544, "lon": -82.3205791, "location_id": "/title/tt0468569/filminglocations/lc0314551"}, {"location_name": "DuPont State Forest, North Carolina, USA", "lat": 35.19804070000001, "lon": -82.6063811446106, "location_id": "/title/tt0468569/filminglocations/lc0314526"}, {"location_name": "Barnardsville, North Carolina, USA", "lat": 35.77761, "lon": -82.45485, "location_id": "/title/tt0468569/filminglocations/lc0314536"}, {"location_name": "Bridal Veil Falls, DuPont State Forest, North Carolina, USA", "lat": 35.0718733, "lon": -83.2288784, "location_id": "/title/tt0468569/filminglocations/lc0314541"}, {"location_name": "Cedar Mountain, North Carolina, USA", "lat": 35.1434499, "lon": -82.6429035, "location_id": "/title/tt0468569/filminglocations/lc0314553"}, {"location_name": "Triple Falls, DuPont State Forest, North Carolina, USA", "lat": 35.1984101, "lon": -82.6168754, "location_id": "/title/tt0468569/filminglocations/lc0314520"}, {"location_name": "Henry River Mill Village, North Carolina, USA", "lat": 35.6958429, "lon": -81.4288616, "location_id": "/title/tt0468569/filminglocations/lc0314534"}, {"location_name": "Charlotte Convention Center - 501 S College Street, Charlotte, North Carolina, USA", "lat": 35.2229594, "lon": -80.8461422, "location_id": "/title/tt0468569/filminglocations/lc0314522"}, {"location_name": "Loarre, Huesca, Arag\u00f3n, Spain", "lat": 42.3140366, "lon": -0.625272, "location_id": "/title/tt0468569/filminglocations/lc0314525"}, {"location_name": "Sevilla, Andaluc\u00eda, Spain", "lat": 37.3886303, "lon": -5.9953403, "location_id": "/title/tt0468569/filminglocations/lc0314545"}, {"location_name": "Alc\u00e1zar of Sevilla, Sevilla, Spain", "lat": 37.383210500000004, "lon": -5.990183515548227, "location_id": "/title/tt0468569/filminglocations/lc0314519"}, {"location_name": "Palma del R\u00edo, C\u00f3rdoba, Andaluc\u00eda, Spain", "lat": 37.6949622, "lon": -5.2804262, "location_id": "/title/tt0468569/filminglocations/lc0314538"}, {"location_name": "\u00c1vila, Castilla y Le\u00f3n, Spain", "lat": 40.656478, "lon": -4.7002172, "location_id": "/title/tt0468569/filminglocations/lc0314552"}, {"location_name": "Segovia, Castilla y Le\u00f3n, Spain", "lat": 42.574094, "lon": -5.0107296, "location_id": "/title/tt0468569/filminglocations/lc0314517"}, {"location_name": "Casa de Pilatos, Plaza de Pilatos, Sevilla, Andaluc\u00eda, Spain", "lat": 37.3902394, "lon": -5.987249062427177, "location_id": "/title/tt0468569/filminglocations/lc0314535"}, {"location_name": "Castillo de Loarre, Huesca, Aragon, Spain", "lat": 42.325516, "lon": -0.6125628588892831, "location_id": "/title/tt0468569/filminglocations/lc0314528"}, {"location_name": "Old Royal Naval College, King William Walk, Greenwich, London, Greater London, England, UK", "lat": 51.4796264, "lon": -0.0068237, "location_id": "/title/tt0468569/filminglocations/lc0314543"}, {"location_name": "Wheat Wharf, 27 Shad Thames, Bermondsey, London, Greater London, England, UK", "lat": 51.5028774, "lon": -0.07255285000000852, "location_id": "/title/tt0468569/filminglocations/lc0314550"}, {"location_name": "Woburn Walk, Duke's Road, Bloomsbury, London, England, UK", "lat": 51.5271092, "lon": -0.1291665, "location_id": "/title/tt0468569/filminglocations/lc0314549"}, {"location_name": "Carlton House Terrace, St. James's, London, England, UK", "lat": 51.5063357, "lon": -0.1319233, "location_id": "/title/tt0468569/filminglocations/lc2613604"}, {"location_name": "Halton House, Halton, Wendover, Buckinghamshire, England, UK", "lat": 51.7824784, "lon": -0.7254402, "location_id": "/title/tt0468569/filminglocations/lc0314524"}, {"location_name": "Portobello Road, Notting Hill, London, England, UK", "lat": 51.5164653, "lon": -0.2054244, "location_id": "/title/tt0468569/filminglocations/lc0314547"}, {"location_name": "Athenaeum Club, Pall Mall, St. James's, London, England, UK", "lat": 51.50678365, "lon": -0.13275411879751942, "location_id": "/title/tt0468569/filminglocations/lc0314548"}, {"location_name": "Adelphi Building, John Adam Street, Strand, London, England, UK", "lat": 51.509004, "lon": -0.121966, "location_id": "/title/tt0468569/filminglocations/lc1079124"}, {"location_name": "Waterloo Bridge, River Thames, London, England, UK", "lat": 51.4493821, "lon": -0.3875796, "location_id": "/title/tt0468569/filminglocations/lc0314516"}, {"location_name": "Stone Buildings, Lincolns Inn, London, England, UK", "lat": 51.517458, "lon": -0.113728, "location_id": "/title/tt0468569/filminglocations/lc0314521"}, {"location_name": "Tower wharf, London, England, UK", "lat": 51.5073348, "lon": -0.0772469, "location_id": "/title/tt0468569/filminglocations/lc0314527"}, {"location_name": "Chief Goodstoney Rodeo Centre, AB-1A, Canmore, AB T0L 1N0, Canada", "lat": 51.13638497777778, "lon": -114.92242092222223, "location_id": "/title/tt0468569/filminglocations/lc0314533"}, {"location_name": "Flock Hill, Canterbury, New Zealand", "lat": -43.1783164, "lon": 171.7477948, "location_id": "/title/tt0468569/filminglocations/lc0314539"}, {"location_name": "Jezioro Siemianowskie, Podlaskie, Poland", "lat": 52.93429495, "lon": 23.81401281124556, "location_id": "/title/tt0468569/filminglocations/lc0314546"}, {"location_name": "Griffith Park - 4730 Crystal Springs Drive, Los Angeles, California, USA", "lat": 34.140506, "lon": -118.296536, "location_id": "/title/tt0468569/filminglocations/lc0314529"}, {"location_name": "Tarn\u00f3w, Malopolskie, Poland", "lat": 50.025988299999995, "lon": 20.96405842696229, "location_id": "/title/tt0468569/filminglocations/lc0314531"}, {"location_name": "Kentwell Hall, Long Melford, Suffolk, England, UK", "lat": 52.0983652, "lon": 0.7187206630442042, "location_id": "/title/tt0468569/filminglocations/lc0314532"}, {"location_name": "Hillsborough, Auckland, New Zealand", "lat": -36.9221753, "lon": 174.7532908, "location_id": "/title/tt0468569/filminglocations/lc0314537"}]}, "tt1136617": {"id": "tt1136617", "locations": [{"location_name": "Highley Station, Severn Valley Railway, Shropshire, England, UK", "lat": 52.5337041, "lon": -2.4214042, "location_id": "/title/tt1136617/filminglocations/lc2308920"}, {"location_name": "Prague, Czech Republic", "lat": 50.0874654, "lon": 14.4212535, "location_id": "/title/tt1136617/filminglocations/lc2308921"}, {"location_name": "Christchurch, Canterbury, New Zealand", "lat": -43.530955, "lon": 172.6366455, "location_id": "/title/tt1136617/filminglocations/lc2973215"}, {"location_name": "Henderson Valley Studios, Hickory Avenue, Henderson, Auckland, New Zealand", "lat": -36.885225500000004, "lon": 174.6298983610195, "location_id": "/title/tt1136617/filminglocations/lc2308919"}, {"location_name": "Homebush, Darfield, Canterbury, New Zealand", "lat": -43.4716569, "lon": 172.1652266, "location_id": "/title/tt1136617/filminglocations/lc2306677"}, {"location_name": "Monte Cecilia House, Hillsborough Road, Hillsborough, Auckland, New Zealand", "lat": -36.929531, "lon": 174.730317, "location_id": "/title/tt1136617/filminglocations/lc2986301"}, {"location_name": "Glacier National Park, Montana, USA", "lat": 48.50274, "lon": -113.9854, "location_id": "/title/tt1136617/filminglocations/lc2986302"}, {"location_name": "Oamaru, Otago, New Zealand", "lat": -45.0997681, "lon": 170.9684232, "location_id": "/title/tt1136617/filminglocations/lc2986303"}]}, "tt6654210": {"id": "tt6654210", "locations": [{"location_name": "Purakaunui Bay, Otago, New Zealand", "lat": -46.5447974, "lon": 169.6115566, "location_id": "/title/tt6654210/filminglocations/lc1842854"}, {"location_name": "St Pancras International Railway Station, Euston Road, St Pancras, London, Greater London, England, UK", "lat": 51.5307482, "lon": -0.1258306, "location_id": "/title/tt6654210/filminglocations/lc2222480"}, {"location_name": "D Stage, Pinewood Studios, Iver Heath, Buckinghamshire, England, UK", "lat": 51.53642, "lon": -0.5179, "location_id": "/title/tt6654210/filminglocations/lc2222484"}, {"location_name": "Reynisfjara, Iceland", "lat": 63.4044262, "lon": -19.058636107516655, "location_id": "/title/tt6654210/filminglocations/lc2222479"}, {"location_name": "Gan, Laamu Atoll, Maldives", "lat": 1.9240013999999999, "lon": 73.55031562555652, "location_id": "/title/tt6654210/filminglocations/lc1841308"}, {"location_name": "E Stage, Pinewood Studios, Iver Heath, Buckinghamshire, England, UK", "lat": 51.53642, "lon": -0.5179, "location_id": "/title/tt6654210/filminglocations/lc2222478"}, {"location_name": "St. Helens, Oregon, USA", "lat": 45.854994, "lon": -122.814545, "location_id": "/title/tt6654210/filminglocations/lc2222934"}, {"location_name": "Scappoose, Oregon, USA", "lat": 45.7572997, "lon": -122.8743589, "location_id": "/title/tt6654210/filminglocations/lc2222482"}, {"location_name": "33244 SW Sequoia Street, Scappoose, Oregon, USA", "lat": 45.746308, "lon": -122.883518, "location_id": "/title/tt6654210/filminglocations/lc2222481"}, {"location_name": "Portland, Oregon, USA", "lat": 45.5202471, "lon": -122.674194, "location_id": "/title/tt6654210/filminglocations/lc2222485"}, {"location_name": "Beaverton, Oregon, USA", "lat": 45.4871723, "lon": -122.80378, "location_id": "/title/tt6654210/filminglocations/lc2222483"}, {"location_name": "3814 SE Martins Street, Portland, Oregon, USA", "lat": 45.478226250000006, "lon": -122.62327829984537, "location_id": "/title/tt6654210/filminglocations/lc2258472"}, {"location_name": "Whittier High School - 12417 E. Philadelphia Street, Whittier, California, USA", "lat": 33.979822, "lon": -118.04404, "location_id": "/title/tt6654210/filminglocations/lc2327885"}, {"location_name": "Puente Hills Mall - 1600 Azusa Avenue, City of Industry, California, USA", "lat": 33.993549, "lon": -117.930595, "location_id": "/title/tt6654210/filminglocations/lc3280450"}, {"location_name": "1711 Bushnell Avenue, South Pasadena, California, USA", "lat": 34.10618125, "lon": -118.14155765061811, "location_id": "/title/tt6654210/filminglocations/lc3377835"}]}, "tt13287846": {"id": "tt13287846", "locations": [{"location_name": "1727 Bushnell Avenue, South Pasadena, California, USA", "lat": 34.105706, "lon": -118.14152424760314, "location_id": "/title/tt13287846/filminglocations/lc2897528"}, {"location_name": "Gamble House - 4 Westmoreland Place, Pasadena, California, USA", "lat": 34.151704, "lon": -118.160786, "location_id": "/title/tt13287846/filminglocations/lc2897530"}, {"location_name": "Hollywood United Methodist Church - 6817 Franklin Avenue, Hollywood, Los Angeles, California, USA", "lat": 34.104268, "lon": -118.339035, "location_id": "/title/tt13287846/filminglocations/lc2897531"}, {"location_name": "9303 Roslyndale Avenue, Los Angeles, California, USA", "lat": 34.238987, "lon": -118.43333, "location_id": "/title/tt13287846/filminglocations/lc2897529"}, {"location_name": "1809 Bushnell Avenue, South Pasadena, California, USA", "lat": 34.1052975, "lon": -118.14153495471311, "location_id": "/title/tt13287846/filminglocations/lc2972256"}, {"location_name": "Courthouse Square, Backlot, Universal Studios - 100 Universal City Plaza, Universal City, California, USA", "lat": 34.138586, "lon": -118.355735, "location_id": "/title/tt13287846/filminglocations/lc3409191"}]}, "tt2911666": {"id": "tt2911666", "locations": [{"location_name": "RR Blacker House - 1177 Hillcrest Avenue, Oak Knoll, Pasadena, California, USA", "lat": 34.126971, "lon": -118.133554, "location_id": "/title/tt2911666/filminglocations/lc0934381"}, {"location_name": "535 North Victory Boulevard, Burbank, California, USA", "lat": 34.179827, "lon": -118.319963, "location_id": "/title/tt2911666/filminglocations/lc1446291"}, {"location_name": "Kagel Canyon Street & Sandusky Avenue, Arleta, California, USA", "lat": 34.2816959, "lon": -118.3790431, "location_id": "/title/tt2911666/filminglocations/lc0774532"}, {"location_name": "Chino, California, USA", "lat": 34.0133561, "lon": -117.690075, "location_id": "/title/tt2911666/filminglocations/lc0934383"}, {"location_name": "Stage 12, Universal Studios - 100 Universal City Plaza, Universal City, California, USA", "lat": 34.138586, "lon": -118.355735, "location_id": "/title/tt2911666/filminglocations/lc0950239"}, {"location_name": "Stage 23, Universal Studios - 100 Universal City Plaza, Universal City, California, USA", "lat": 34.138586, "lon": -118.355735, "location_id": "/title/tt2911666/filminglocations/lc1459367"}, {"location_name": "Stage 36, Universal Studios - 100 Universal City Plaza, Universal City, California, USA", "lat": 34.138586, "lon": -118.355735, "location_id": "/title/tt2911666/filminglocations/lc0934387"}, {"location_name": "Santa Clarita, California, USA", "lat": 34.4127963, "lon": -118.5538088, "location_id": "/title/tt2911666/filminglocations/lc0774353"}, {"location_name": "Glenfinnan, Highland, Scotland, UK", "lat": 56.8710714, "lon": -5.446437, "location_id": "/title/tt2911666/filminglocations/lc0933730"}, {"location_name": "Glen Coe, Highland, Scotland, UK", "lat": 56.6669243, "lon": -5.0228812, "location_id": "/title/tt2911666/filminglocations/lc1361434"}, {"location_name": "Loch Shiel, Highland, Scotland, UK", "lat": 57.2089633, "lon": -5.405715248744751, "location_id": "/title/tt2911666/filminglocations/lc0934401"}, {"location_name": "Green Lanes, Palmers Green, London, England, UK", "lat": 51.6250616, "lon": -0.1004196, "location_id": "/title/tt2911666/filminglocations/lc1446294"}, {"location_name": "8 Stoney Street, London, Greater London, England, UK", "lat": 51.50529685, "lon": -0.0912428753968603, "location_id": "/title/tt2911666/filminglocations/lc1446290"}, {"location_name": "Wistman's Wood, Dartmoor, England, UK", "lat": 50.577939150000006, "lon": -3.9612094273141425, "location_id": "/title/tt2911666/filminglocations/lc0934382"}, {"location_name": "Namib Desert, Namibia", "lat": -24.115903, "lon": 15.904147, "location_id": "/title/tt2911666/filminglocations/lc1446293"}, {"location_name": "Cape Town Film Studios, Cape Town, Western Cape, South Africa", "lat": -34.0315617, "lon": 18.719156772105897, "location_id": "/title/tt2911666/filminglocations/lc1459368"}, {"location_name": "Swakopmund, Erongo, Namibia", "lat": -22.6767841, "lon": 14.5313988, "location_id": "/title/tt2911666/filminglocations/lc1461295"}, {"location_name": "Sydney, New South Wales, Australia", "lat": -33.8698439, "lon": 151.2082848, "location_id": "/title/tt2911666/filminglocations/lc1446295"}, {"location_name": "Penrith, New South Wales, Australia", "lat": -33.74779624999999, "lon": 150.71478824217297, "location_id": "/title/tt2911666/filminglocations/lc1446292"}, {"location_name": "Potts Hill, Sydney, New South Wales, Australia", "lat": -33.8922191, "lon": 151.0329222, "location_id": "/title/tt2911666/filminglocations/lc2079083"}, {"location_name": "Disney Studios, Moore Park, Sydney, New South Wales, Australia", "lat": -33.890960899999996, "lon": 151.22750517838074, "location_id": "/title/tt2911666/filminglocations/lc1752032"}, {"location_name": "Cannon Beach, Oregon, USA", "lat": 45.8900275, "lon": -123.9618623, "location_id": "/title/tt2911666/filminglocations/lc2079085"}, {"location_name": "Astoria, Oregon, USA", "lat": 46.1882007, "lon": -123.8319802, "location_id": "/title/tt2911666/filminglocations/lc2079084"}, {"location_name": "368 38th Street, Astoria, Oregon, USA", "lat": 46.192945934707915, "lon": -123.79978634936104, "location_id": "/title/tt2911666/filminglocations/lc1752033"}, {"location_name": "John Warren Field - 677 18th Street, Astoria, Oregon, USA", "lat": 46.186583, "lon": -123.822988, "location_id": "/title/tt2911666/filminglocations/lc3271560"}]}, "tt11040844": {"id": "tt11040844", "locations": [{"location_name": "304 38th Street, Astoria, Oregon, USA", "lat": 46.19344105528352, "lon": -123.79973708261544, "location_id": "/title/tt11040844/filminglocations/lc2189643"}]}, "tt23026954": {"id": "tt23026954", "locations": [{"location_name": "Flavel House Museum - 441 8th Street, Astoria, Oregon, USA", "lat": 46.1881154, "lon": -123.83514164555729, "location_id": "/title/tt23026954/filminglocations/lc3574821"}]}, "tt6710474": {"id": "tt6710474", "locations": [{"location_name": "Astoria Coffee Company - 304 37th Street, Astoria, Oregon, USA", "lat": 46.193354, "lon": -123.801131, "location_id": "/title/tt6710474/filminglocations/lc2653305"}, {"location_name": "32 Skyline Avenue, Astoria, Oregon, USA", "lat": 46.185859, "lon": -123.84253, "location_id": "/title/tt6710474/filminglocations/lc2691686"}, {"location_name": "4669 Crystal Springs Dr, Los Angeles, California, USA", "lat": 34.13243561111111, "lon": -118.28037611111111, "location_id": "/title/tt6710474/filminglocations/lc2652217"}, {"location_name": "Stage 15, Warner Brothers Burbank Studios - 4000 Warner Boulevard, Burbank, California, USA", "lat": 34.148175, "lon": -118.338482, "location_id": "/title/tt6710474/filminglocations/lc2760694"}, {"location_name": "Ecola State Park, Highway 101, Cannon Beach, Oregon, USA", "lat": 45.875697, "lon": -123.95683, "location_id": "/title/tt6710474/filminglocations/lc2779519"}, {"location_name": "Clatsop County Jail - 732 Duane Street, Astoria, Oregon, USA", "lat": 46.18854385, "lon": -123.8354815007776, "location_id": "/title/tt6710474/filminglocations/lc2779518"}, {"location_name": "Stage 12, Warner Brothers Burbank Studios - 4000 Warner Boulevard, Burbank, California, USA", "lat": 34.148175, "lon": -118.338482, "location_id": "/title/tt6710474/filminglocations/lc2814276"}, {"location_name": "Backlot, Warner Brothers Burbank Studios - 4000 Warner Boulevard, Burbank, California, USA", "lat": 34.148175, "lon": -118.338482, "location_id": "/title/tt6710474/filminglocations/lc2874616"}, {"location_name": "Stage 19, Warner Brothers Burbank Studios - 4000 Warner Boulevard, Burbank, California, USA", "lat": 34.148175, "lon": -118.338482, "location_id": "/title/tt6710474/filminglocations/lc3168593"}, {"location_name": "Stage 19A, Warner Brothers Burbank Studios - 4000 Warner Boulevard, Burbank, California, USA", "lat": 34.148175, "lon": -118.338482, "location_id": "/title/tt6710474/filminglocations/lc2874617"}, {"location_name": "Stage 28A, Warner Brothers Burbank Studios - 4000 Warner Boulevard, Burbank, California, USA", "lat": 34.148175, "lon": -118.338482, "location_id": "/title/tt6710474/filminglocations/lc2874618"}, {"location_name": "Warner Brothers Burbank Studios 4000 Warner Boulevard, Burbank, California, USA", "lat": 34.148175, "lon": -118.338482, "location_id": "/title/tt6710474/filminglocations/lc3337224"}, {"location_name": "Manhattan, New York City, New York, USA", "lat": 40.777048, "lon": -73.967596, "location_id": "/title/tt6710474/filminglocations/lc3386674"}, {"location_name": "Queens, New York CIty, New York, USA", "lat": 40.718804, "lon": -73.805154, "location_id": "/title/tt6710474/filminglocations/lc3399985"}]}, "tt15239678": {"id": "tt15239678", "locations": [{"location_name": "Brooklyn, New York City, New York, USA", "lat": 40.6526006, "lon": -73.9497211, "location_id": "/title/tt15239678/filminglocations/lc2678254"}, {"location_name": "Trilith Studios - 461 Sandy Creek Road, Fayetteville, Georgia, USA", "lat": 33.474626, "lon": -84.511576, "location_id": "/title/tt15239678/filminglocations/lc3018443"}, {"location_name": "Alexander Hamilton Bridge, New York City, New York, USA", "lat": 40.8452064, "lon": -73.92732009201943, "location_id": "/title/tt15239678/filminglocations/lc3018442"}, {"location_name": "Franklin K. Lane High School - 999 Jamaica Avenue, Brooklyn, New York City, New York, USA", "lat": 40.692633, "lon": -73.868909, "location_id": "/title/tt15239678/filminglocations/lc2883222"}]}, "tt0172495": {"id": "tt0172495", "locations": [{"location_name": "Vacaville, California, USA", "lat": 38.3565773, "lon": -121.9877444, "location_id": "/title/tt0172495/filminglocations/lc0128491"}, {"location_name": "West 12th Street, Manhattan, New York City, New York, USA", "lat": 40.7359773, "lon": -73.9976754, "location_id": "/title/tt0172495/filminglocations/lc0128490"}, {"location_name": "Queensboro Bridge, Manhattan, New York City, New York, USA", "lat": 40.75573085, "lon": -73.95188400365261, "location_id": "/title/tt0172495/filminglocations/lc0128489"}, {"location_name": "Worcester, Massachusetts, USA", "lat": 42.2625621, "lon": -71.8018877, "location_id": "/title/tt0172495/filminglocations/lc0128493"}, {"location_name": "Fan Pier Park, Boston, Massachusetts, USA", "lat": 42.354657599999996, "lon": -71.04717827208005, "location_id": "/title/tt0172495/filminglocations/lc0128487"}, {"location_name": "Revere, Massachusetts, USA", "lat": 42.4084302, "lon": -71.0119948, "location_id": "/title/tt0172495/filminglocations/lc0128486"}, {"location_name": "Pittsburgh, Pennsylvania, USA", "lat": 40.4416941, "lon": -79.9900861, "location_id": "/title/tt0172495/filminglocations/lc0128488"}, {"location_name": "Weymouth, Massachusetts, USA", "lat": 42.2212188, "lon": -70.9391625, "location_id": "/title/tt0172495/filminglocations/lc0128492"}, {"location_name": "74 Concord St., Framingham, Massachusetts, USA", "lat": 42.278171, "lon": -71.417169, "location_id": "/title/tt0172495/filminglocations/lc1054854"}, {"location_name": "Post Office Square, Boston, Massachusetts, USA", "lat": 42.3575068, "lon": -71.0563378, "location_id": "/title/tt0172495/filminglocations/lc3132017"}, {"location_name": "Revere Beach, Revere, Massachusetts, USA", "lat": 42.414621, "lon": -70.990548, "location_id": "/title/tt0172495/filminglocations/lc1054855"}, {"location_name": "606 Congress St, Boston, Massachusetts, USA", "lat": 42.34796, "lon": -71.039514, "location_id": "/title/tt0172495/filminglocations/lc1054857"}, {"location_name": "Liberty Square, Boston, Massachusetts, USA", "lat": 42.3579962, "lon": -71.055333, "location_id": "/title/tt0172495/filminglocations/lc1054856"}]}, "tt0120737": {"id": "tt0120737", "locations": [{"location_name": "Paramount Studios - 5555 Melrose Avenue, Hollywood, Los Angeles, California, USA", "lat": 34.083634, "lon": -118.32191, "location_id": "/title/tt0120737/filminglocations/lc0330350"}, {"location_name": "Cliffs of Moher, County Clare, Ireland", "lat": 52.9595033, "lon": -9.4441796, "location_id": "/title/tt0120737/filminglocations/lc0330335"}, {"location_name": "Haddon Hall, Bakewell, Derbyshire, England, UK", "lat": 53.1938185, "lon": -1.6495390704130992, "location_id": "/title/tt0120737/filminglocations/lc0330336"}, {"location_name": "Hever Castle, Hever, Kent, England, UK", "lat": 51.1869092, "lon": 0.11373480835010619, "location_id": "/title/tt0120737/filminglocations/lc0330343"}, {"location_name": "Cave Dale, Peak District National Park, Derbyshire, England, UK", "lat": 53.35, "lon": -1.83333, "location_id": "/title/tt0120737/filminglocations/lc0330334"}, {"location_name": "Burnham Beeches, Buckinghamshire, England, UK", "lat": 51.5565286, "lon": -0.6327670695416168, "location_id": "/title/tt0120737/filminglocations/lc0330339"}, {"location_name": "Lathkill Dale, Derbyshire, England, UK", "lat": 53.19217405, "lon": -1.6977598123553852, "location_id": "/title/tt0120737/filminglocations/lc0330342"}, {"location_name": "Robin Hood's Stride, Birchover, Derbyshire, England, UK", "lat": 53.1570297, "lon": -1.6658699, "location_id": "/title/tt0120737/filminglocations/lc0330344"}, {"location_name": "Carl Wark, Peak District National Park, Yorkshire, England, UK", "lat": 54.26667, "lon": -2.08333, "location_id": "/title/tt0120737/filminglocations/lc0330345"}, {"location_name": "Samana, Dominican Republic", "lat": 19.2036865, "lon": -69.3389611, "location_id": "/title/tt0120737/filminglocations/lc0330337"}, {"location_name": "Wallilabou Bay, St Vincent and the Grenadines", "lat": 13.24826, "lon": -61.27298, "location_id": "/title/tt0120737/filminglocations/lc0330347"}, {"location_name": "Bequia, St Vincent and the Grenadines", "lat": 12.59727015, "lon": -61.417773249999996, "location_id": "/title/tt0120737/filminglocations/lc0330346"}, {"location_name": "Mexican Street, Backlot, Universal Studios - 100 Universal City Plaza, Universal City, California, USA", "lat": 34.138586, "lon": -118.355735, "location_id": "/title/tt0120737/filminglocations/lc0330333"}, {"location_name": "Stage 2, Walt Disney Studios, 500 South Buena Vista Street, Burbank, California, USA", "lat": 34.156874, "lon": -118.325027, "location_id": "/title/tt0120737/filminglocations/lc0330341"}, {"location_name": "Marineland of the Pacific - 6610 Palos Verdes Drive South, Rancho Palos Verdes, California, USA", "lat": 33.739483, "lon": -118.400278, "location_id": "/title/tt0120737/filminglocations/lc1051909"}, {"location_name": "Little Europe, Backlot, Universal Studios - 100 Universal City Plaza, Universal City, California, USA", "lat": 34.138586, "lon": -118.355735, "location_id": "/title/tt0120737/filminglocations/lc1051911"}, {"location_name": "Mediterranean Square, Backlot, Universal Studios - 100 Universal City Plaza, Universal City, California, USA", "lat": 34.138586, "lon": -118.355735, "location_id": "/title/tt0120737/filminglocations/lc0330349"}, {"location_name": "Saunton Sands, Devon, England, UK", "lat": 51.09189955, "lon": -4.227135887328566, "location_id": "/title/tt0120737/filminglocations/lc0330332"}, {"location_name": "Hawaii, USA", "lat": 19.593801499999998, "lon": -155.42837009716908, "location_id": "/title/tt0120737/filminglocations/lc0330338"}, {"location_name": "St Abbs, Eyemouth, Scottish Borders, Scotland, UK", "lat": 55.8978019, "lon": -2.1304205, "location_id": "/title/tt0120737/filminglocations/lc0330348"}, {"location_name": "Trilith Studios, 461 Sandy Creek Road, Fayetteville, Georgia, USA", "lat": 33.474626, "lon": -84.511576, "location_id": "/title/tt0120737/filminglocations/lc0330331"}, {"location_name": "SANY America, 318 Cooper Circle, Peachtree City, Georgia, USA", "lat": 33.3520935, "lon": -84.557443, "location_id": "/title/tt0120737/filminglocations/lc1051908"}, {"location_name": "Edwards AFB, California, USA", "lat": 34.912822, "lon": -117.948532, "location_id": "/title/tt0120737/filminglocations/lc0330340"}, {"location_name": "The Proscenium, 1170 Peachtree Street NE, Atlanta, Georgia, USA", "lat": 33.78631955, "lon": -84.38368746710526, "location_id": "/title/tt0120737/filminglocations/lc1051918"}, {"location_name": "Facing MLK Jr Drive., 100 Broad St SW, Atlanta, Georgia, USA", "lat": 33.751784, "lon": -84.393039, "location_id": "/title/tt0120737/filminglocations/lc1051922"}, {"location_name": "Alexandra and Ainsworth Estate, Rowley Way, Camden, London, England, UK", "lat": 51.539959100000004, "lon": -0.1809703443840603, "location_id": "/title/tt0120737/filminglocations/lc1051907"}, {"location_name": "Sharpthorne tunnel, Bluebell Railway, West Sussex, England, UK", "lat": 51.074018, "lon": -0.044811, "location_id": "/title/tt0120737/filminglocations/lc1051912"}, {"location_name": "Wrotham Park, Barnet, Hertfordshire, England, UK", "lat": 51.6747389, "lon": -0.198313236185569, "location_id": "/title/tt0120737/filminglocations/lc1051914"}, {"location_name": "6 Black Prince Rd, Kennington, London, England, UK", "lat": 51.4896428, "lon": -0.11210461082443676, "location_id": "/title/tt0120737/filminglocations/lc1051917"}, {"location_name": "11 Savile Row, London, England, UK", "lat": 51.5109328, "lon": -0.1400346140820593, "location_id": "/title/tt0120737/filminglocations/lc1051919"}, {"location_name": "11 Stanhope Mews South, Kensington, London, England, UK", "lat": 51.4933001, "lon": -0.1804090306638232, "location_id": "/title/tt0120737/filminglocations/lc1051921"}, {"location_name": "Holborn Police Station, London, England, UK", "lat": 51.52079075, "lon": -0.11749458317579028, "location_id": "/title/tt0120737/filminglocations/lc1051905"}, {"location_name": "F Stage, Pinewood Studios, Iver Heath, Buckinghamshire, England, UK", "lat": 51.53642, "lon": -0.5179, "location_id": "/title/tt0120737/filminglocations/lc1051906"}, {"location_name": "Port Adelaide, South Australia, Australia", "lat": -34.8342755, "lon": 138.5123548, "location_id": "/title/tt0120737/filminglocations/lc1051910"}, {"location_name": "Coober Pedy, South Australia, Australia", "lat": -29.0133682, "lon": 134.7536164, "location_id": "/title/tt0120737/filminglocations/lc1051913"}, {"location_name": "Mount Crawford, South Australia, Australia", "lat": -34.66667, "lon": 138.95, "location_id": "/title/tt0120737/filminglocations/lc1051915"}, {"location_name": "Mount Lofty Ranges, South Australia, Australia", "lat": -35, "lon": 138.7, "location_id": "/title/tt0120737/filminglocations/lc1051916"}, {"location_name": "Adelaide Studios, 226 Fullarton Road, Glenside, South Australia, Australia", "lat": -34.945198, "lon": 138.628545, "location_id": "/title/tt0120737/filminglocations/lc1051920"}, {"location_name": "Adelaide Hills, South Australia, Australia", "lat": -34.90135105, "lon": 138.82932020091445, "location_id": "/title/tt0120737/filminglocations/lc2715285"}, {"location_name": "Zwinger, Dresden, Saxony, Germany", "lat": 51.053029550000005, "lon": 13.734977530931122, "location_id": "/title/tt0120737/filminglocations/lc2715286"}, {"location_name": "Krak\u00f3w, Malopolskie, Poland", "lat": 50.1094444, "lon": 21.1480556, "location_id": "/title/tt0120737/filminglocations/lc2715287"}, {"location_name": "Osterstein Castle, Zwickau, Saxony, Germany", "lat": 50.72101965, "lon": 12.49992126519431, "location_id": "/title/tt0120737/filminglocations/lc2715288"}, {"location_name": "Hainewalde, Saxony, Germany", "lat": 50.9101231, "lon": 14.7040523, "location_id": "/title/tt0120737/filminglocations/lc2715289"}, {"location_name": "Waldenburg, Saxony, Germany", "lat": 50.8743975, "lon": 12.6003812, "location_id": "/title/tt0120737/filminglocations/lc2715290"}, {"location_name": "S\u00e4chsische Schweiz, Saxony, Germany", "lat": 50.91528135, "lon": 14.140008624300318, "location_id": "/title/tt0120737/filminglocations/lc2715291"}, {"location_name": "Burg Kriebstein, Kriebstein, Saxony, Germany", "lat": 51.04249315, "lon": 13.017594030833333, "location_id": "/title/tt0120737/filminglocations/lc2715292"}, {"location_name": "Eagle Mountain Ln, Burney, California, USA", "lat": 41.031917, "lon": -121.632939, "location_id": "/title/tt0120737/filminglocations/lc2715293"}, {"location_name": "McCloud River Railroad, McCloud, California, USA", "lat": 34.022891, "lon": -117.562851, "location_id": "/title/tt0120737/filminglocations/lc2715294"}, {"location_name": "419 N Main St, Brownsville, Oregon, USA", "lat": 44.394595, "lon": -122.984703, "location_id": "/title/tt0120737/filminglocations/lc2715295"}]}, "tt1375666": {"id": "tt1375666", "locations": [{"location_name": "School Ave, Brownsville, Oregon, USA", "lat": 44.3969168, "lon": -122.9824509, "location_id": "/title/tt1375666/filminglocations/lc0155114"}, {"location_name": "Veneta, Oregon, USA", "lat": 44.046514, "lon": -123.353537, "location_id": "/title/tt1375666/filminglocations/lc0155128"}, {"location_name": "Row River Trail, Cottage Grove, Oregon, USA", "lat": 43.7998245, "lon": -123.0469069, "location_id": "/title/tt1375666/filminglocations/lc0155125"}, {"location_name": "Eugene, Oregon, USA", "lat": 44.0505054, "lon": -123.0950506, "location_id": "/title/tt1375666/filminglocations/lc0155129"}, {"location_name": "325 Fisher St, Brownsville, Oregon, USA", "lat": 44.393925, "lon": -122.988399, "location_id": "/title/tt1375666/filminglocations/lc0923893"}, {"location_name": "Franklin, Oregon, USA", "lat": 44.1584023, "lon": -123.3077098, "location_id": "/title/tt1375666/filminglocations/lc0155110"}, {"location_name": "Territorial Hwy & Franklin Rd, Junction City, Oregon, USA", "lat": 44.3131157, "lon": -123.296782, "location_id": "/title/tt1375666/filminglocations/lc0155116"}, {"location_name": "Holloway Heights, Brownsville, Oregon, USA", "lat": 44.395101, "lon": -122.986389, "location_id": "/title/tt1375666/filminglocations/lc0155122"}, {"location_name": "25850 Tidball Ln, Veneta, Oregon, USA", "lat": 44.05022, "lon": -123.322039, "location_id": "/title/tt1375666/filminglocations/lc0155107"}, {"location_name": "1152 Linn Way, Brownsville, Oregon, USA", "lat": 44.40180550013256, "lon": -122.990930262887, "location_id": "/title/tt1375666/filminglocations/lc0155126"}, {"location_name": "Baptist Cemetery, Brownsville, Oregon, USA", "lat": 44.4196573, "lon": -123.0169321, "location_id": "/title/tt1375666/filminglocations/lc0155108"}, {"location_name": "Royal Ave. Eugene, Oregon, USA", "lat": 44.0698948, "lon": -123.1560014, "location_id": "/title/tt1375666/filminglocations/lc0155130"}, {"location_name": "N Main St & Park Ave, Brownsville, Oregon, USA", "lat": 34.8665219, "lon": -82.3922057, "location_id": "/title/tt1375666/filminglocations/lc0155109"}, {"location_name": "380 South San Rafael Avenue, Pasadena, California, USA", "lat": 34.137285, "lon": -118.169594, "location_id": "/title/tt1375666/filminglocations/lc0913087"}, {"location_name": "Tehachapi Pass, California, USA", "lat": 35.1015454, "lon": -118.2828678, "location_id": "/title/tt1375666/filminglocations/lc0155113"}, {"location_name": "Blue Hole, Kaua'i, Hawaii, USA", "lat": 22.0663404, "lon": -159.4828966, "location_id": "/title/tt1375666/filminglocations/lc0155123"}, {"location_name": "Red Rock Canyon State Park - Highway 14, Cantil, California, USA", "lat": 35.2383, "lon": -118.056427, "location_id": "/title/tt1375666/filminglocations/lc0155124"}, {"location_name": "Lawai, Kaua'i, Hawaii, USA", "lat": 21.917797, "lon": -159.500293, "location_id": "/title/tt1375666/filminglocations/lc0155115"}, {"location_name": "Stage 24, Universal Studios - 100 Universal City Plaza, Universal City, California, USA", "lat": 34.138586, "lon": -118.355735, "location_id": "/title/tt1375666/filminglocations/lc0155117"}, {"location_name": "Griffith Observatory, 2800 E Observatory Rd, Los Angeles, California, USA", "lat": 34.11821875, "lon": -118.30029332196601, "location_id": "/title/tt1375666/filminglocations/lc0155127"}, {"location_name": "Stage 28, Universal Studios - 100 Universal City Plaza, Universal City, California, USA", "lat": 34.138586, "lon": -118.355735, "location_id": "/title/tt1375666/filminglocations/lc0794970"}, {"location_name": "Stage 27, Universal Studios - 100 Universal City Plaza, Universal City, California, USA", "lat": 34.138586, "lon": -118.355735, "location_id": "/title/tt1375666/filminglocations/lc0155121"}, {"location_name": "Hoopii Falls, Kapaa, Kaua'i, Hawaii, USA", "lat": 22.105297, "lon": -159.339049, "location_id": "/title/tt1375666/filminglocations/lc0155105"}, {"location_name": "Jungle Set, Warner Brothers Burbank Studios - 4000 Warner Boulevard, Burbank, California, USA", "lat": 34.148175, "lon": -118.338482, "location_id": "/title/tt1375666/filminglocations/lc0155112"}, {"location_name": "Oxford University, Oxford, Oxfordshire, England, UK", "lat": 51.7583164, "lon": -1.2651448728790433, "location_id": "/title/tt1375666/filminglocations/lc0155106"}, {"location_name": "King's Cross Station, King's Cross, London, England, UK", "lat": 51.5304561, "lon": -0.1232594, "location_id": "/title/tt1375666/filminglocations/lc0155118"}, {"location_name": "Lacock Abbey, Lacock, Wiltshire, England, UK", "lat": 51.4148104, "lon": -2.116894635571449, "location_id": "/title/tt1375666/filminglocations/lc2916966"}, {"location_name": "Ealing Studios, Ealing, London, England, UK", "lat": 51.50892995, "lon": -0.307743284849164, "location_id": "/title/tt1375666/filminglocations/lc0155111"}, {"location_name": "Loch Eilt, Highland, Scotland, UK", "lat": 56.880393, "lon": -5.592716, "location_id": "/title/tt1375666/filminglocations/lc0794974"}, {"location_name": "Guanabara Bay, Rio de Janeiro, Rio de Janeiro, Brazil", "lat": -22.81690235, "lon": -43.127220112581526, "location_id": "/title/tt1375666/filminglocations/lc0155119"}, {"location_name": "Fort Macomb, New Orleans, Louisiana, USA", "lat": 30.0648035, "lon": -89.80463109095354, "location_id": "/title/tt1375666/filminglocations/lc0794975"}, {"location_name": "Mangaratiba, Rio de Janeiro, Brazil", "lat": -22.9600193, "lon": -44.04111, "location_id": "/title/tt1375666/filminglocations/lc0794973"}, {"location_name": "Niter\u00f3i, Rio de Janeiro, Brazil", "lat": -22.8884, "lon": -43.1147, "location_id": "/title/tt1375666/filminglocations/lc0155120"}, {"location_name": "First Presbyterian Church of Hollywood - 1760 N. Gower Street, Hollywood, Los Angeles, California, USA", "lat": 34.103151, "lon": -118.322219, "location_id": "/title/tt1375666/filminglocations/lc1995704"}]}, "tt5090568": {"id": "tt5090568", "locations": [{"location_name": "Elmwood, Louisiana, USA", "lat": 29.9565932, "lon": -90.1897975, "location_id": "/title/tt5090568/filminglocations/lc2231650"}, {"location_name": "Tikal National Park, Guatemala", "lat": 17.1910467, "lon": -89.61489111940308, "location_id": "/title/tt5090568/filminglocations/lc2237502"}, {"location_name": "Yuma, Arizona, USA", "lat": 32.665135, "lon": -114.47603157249804, "location_id": "/title/tt5090568/filminglocations/lc2237500"}, {"location_name": "Sidi Driss Hotel, Matmata, Tunisia", "lat": 33.5425816, "lon": 9.967051160815116, "location_id": "/title/tt5090568/filminglocations/lc2237890"}, {"location_name": "Ajim, Jerba, Tunisia", "lat": 33.72638, "lon": 10.75664, "location_id": "/title/tt5090568/filminglocations/lc2287403"}, {"location_name": "Sidi Bouhlel, Tozeur, Tunisia", "lat": 34.0357781, "lon": 8.280712508755723, "location_id": "/title/tt5090568/filminglocations/lc2237504"}, {"location_name": "Calakmul, Campeche, Mexico", "lat": 18.1142902, "lon": -89.80105, "location_id": "/title/tt5090568/filminglocations/lc2237503"}, {"location_name": "Elstree Studios, Borehamwood, Hertfordshire, England, UK", "lat": 51.6570349, "lon": -0.2674985120341028, "location_id": "/title/tt5090568/filminglocations/lc2233290"}, {"location_name": "Sidi Bouhel, Tunisia", "lat": 36.1770871, "lon": 9.1256499, "location_id": "/title/tt5090568/filminglocations/lc2704267"}, {"location_name": "Stage 1, Elstree Studios, Borehamwood, Hertfordshire, England, UK", "lat": 51.6588553, "lon": -0.2764137720024714, "location_id": "/title/tt5090568/filminglocations/lc2236290"}, {"location_name": "Stage 7, Elstree Studios, Borehamwood, Hertfordshire, England, UK", "lat": 51.657857699999994, "lon": -0.2690827500000068, "location_id": "/title/tt5090568/filminglocations/lc2236289"}, {"location_name": "Stage 8, Elstree Studios, Borehamwood, Hertfordshire, England, UK", "lat": 51.65768145, "lon": -0.26884009999999586, "location_id": "/title/tt5090568/filminglocations/lc2231649"}, {"location_name": "Stage 2, Elstree Studios, Borehamwood, Hertfordshire, England, UK", "lat": 51.6588553, "lon": -0.2764137720024714, "location_id": "/title/tt5090568/filminglocations/lc2233297"}]}, "tt1630029": {"id": "tt1630029", "locations": [{"location_name": "Stage 6, Elstree Studios, Borehamwood, Hertfordshire, England, UK", "lat": 51.6576794, "lon": -0.2699072338169528, "location_id": "/title/tt1630029/filminglocations/lc0796509"}, {"location_name": "Stage 3, Elstree Studios, Borehamwood, Hertfordshire, England, UK", "lat": 51.6588553, "lon": -0.2764137720024714, "location_id": "/title/tt1630029/filminglocations/lc0993619"}, {"location_name": "Stage 9, Elstree Studios, Borehamwood, Hertfordshire, England, UK", "lat": 51.65745095, "lon": -0.268522760422506, "location_id": "/title/tt1630029/filminglocations/lc0874374"}, {"location_name": "Tataouine, Tunisia", "lat": 31.7317009, "lon": 9.770219749624271, "location_id": "/title/tt1630029/filminglocations/lc2331988"}, {"location_name": "Tallulah Falls Lake, Georgia, USA", "lat": 34.74375565, "lon": -83.40703028121663, "location_id": "/title/tt1630029/filminglocations/lc2331989"}, {"location_name": "Washington, District of Columbia, USA", "lat": 38.8950368, "lon": -77.0365427, "location_id": "/title/tt1630029/filminglocations/lc2331990"}]}, "tt14633464": {"id": "tt14633464", "locations": [{"location_name": "Mt. Potts Station, Erewhon, Canterbury, New Zealand", "lat": -43.5202003, "lon": 170.8766639, "location_id": "/title/tt14633464/filminglocations/lc3578206"}]}, "tt6906292": {"id": "tt6906292", "locations": [{"location_name": "Deer Park Heights, Queenstown, Otago, New Zealand", "lat": -45.0391751, "lon": 168.6978307, "location_id": "/title/tt6906292/filminglocations/lc2247539"}]}, "tt1745960": {"id": "tt1745960", "locations": [{"location_name": "Mount Ruapehu, Tongariro National Park, Central Plateau, New Zealand", "lat": -39.464289699999995, "lon": 175.67310233566945, "location_id": "/title/tt1745960/filminglocations/lc2731296"}, {"location_name": "Stone Street Studios, Stone Street, Miramar, Wellington, New Zealand", "lat": -41.317412, "lon": 174.814569, "location_id": "/title/tt1745960/filminglocations/lc2763934"}, {"location_name": "Putangirua Pinnacles, Wairarapa region, North Island, New Zealand", "lat": -46.816484, "lon": 168.238851, "location_id": "/title/tt1745960/filminglocations/lc2731298"}, {"location_name": "Pixar Animation Studios - 1200 Park Avenue, Emeryville, California, USA", "lat": 37.832671399999995, "lon": -122.28369421339062, "location_id": "/title/tt1745960/filminglocations/lc2731297"}, {"location_name": "Dettifoss, Vatnaj\u00f6kull National Park, Iceland", "lat": 64.6962739, "lon": -16.957721665731754, "location_id": "/title/tt1745960/filminglocations/lc1706375"}, {"location_name": "Fort William, Glen Coe, Highland, Scotland, UK", "lat": 56.8483618, "lon": -5.088585, "location_id": "/title/tt1745960/filminglocations/lc1751890"}, {"location_name": "Pinewood Toronto Studios, Port Lands, Toronto, Ontario, Canada", "lat": 43.6465663, "lon": -79.35106457413957, "location_id": "/title/tt1745960/filminglocations/lc2763931"}, {"location_name": "Panama", "lat": 8.559559, "lon": -81.1308434, "location_id": "/title/tt1745960/filminglocations/lc2731294"}, {"location_name": "Porto, Portugal", "lat": 41.1494512, "lon": -8.6107884, "location_id": "/title/tt1745960/filminglocations/lc2763930"}, {"location_name": "Augusta, Georgia, USA", "lat": 33.4709714, "lon": -81.9748429, "location_id": "/title/tt1745960/filminglocations/lc2731295"}, {"location_name": "San Juan, Puerto Rico", "lat": 18.46633, "lon": -66.10572, "location_id": "/title/tt1745960/filminglocations/lc2763641"}, {"location_name": "Water Street, Edgartown, Martha's Vineyard, Massachusetts, USA", "lat": 41.4544782, "lon": -70.601231, "location_id": "/title/tt1745960/filminglocations/lc2778856"}, {"location_name": "Falmouth, Massachusetts, USA", "lat": 41.5514979, "lon": -70.6147519, "location_id": "/title/tt1745960/filminglocations/lc1706373"}, {"location_name": "Southern Ocean, South Australia, Australia", "lat": -37.48613, "lon": 140.01193, "location_id": "/title/tt1745960/filminglocations/lc1706374"}, {"location_name": "Oak Bluffs, Martha's Vineyard, Massachusetts, USA", "lat": 41.4536222, "lon": -70.5684337, "location_id": "/title/tt1745960/filminglocations/lc2825162"}, {"location_name": "Main Street, Edgartown, Martha's Vineyard, Massachusetts, USA", "lat": 41.4553215, "lon": -70.6028345, "location_id": "/title/tt1745960/filminglocations/lc2647790"}, {"location_name": "South Water Street & Davis Lane, Edgartown, Massachusetts, USA", "lat": 36.439027, "lon": -99.203528, "location_id": "/title/tt1745960/filminglocations/lc2971072"}, {"location_name": "Aquinnah, Martha's Vineyard, Massachusetts, USA", "lat": 41.3437229, "lon": -70.8147523, "location_id": "/title/tt1745960/filminglocations/lc2647791"}]}, "tt3766354": {"id": "tt3766354", "locations": [{"location_name": "Santa Catalina Island, Channel Islands, California, USA", "lat": 36.7014631, "lon": -118.755997, "location_id": "/title/tt3766354/filminglocations/lc1546543"}, {"location_name": "35 Aquinnah Circle, Aquinnah, Massachusetts, USA", "lat": 41.3460907, "lon": -70.83549984569231, "location_id": "/title/tt3766354/filminglocations/lc1455023"}, {"location_name": "Spencer Gulf, South Australia, Australia", "lat": -28.1765, "lon": 139.79873, "location_id": "/title/tt3766354/filminglocations/lc1700287"}, {"location_name": "Bucharest, Romania", "lat": 44.4361414, "lon": 26.1027202, "location_id": "/title/tt3766354/filminglocations/lc1453052"}, {"location_name": "Varna, Bulgaria", "lat": 43.2073873, "lon": 27.9166653, "location_id": "/title/tt3766354/filminglocations/lc1468711"}, {"location_name": "Sofia Airport, Sofia, Bulgaria", "lat": 42.6879666, "lon": 23.4161349, "location_id": "/title/tt3766354/filminglocations/lc1460590"}, {"location_name": "Vertigo Tower, Sofia, Bulgaria", "lat": 42.65704335, "lon": 23.286106881754854, "location_id": "/title/tt3766354/filminglocations/lc1484148"}, {"location_name": "Lipscani, Bucharest, Romania", "lat": 44.4319356, "lon": 26.1009058, "location_id": "/title/tt3766354/filminglocations/lc1595960"}, {"location_name": "University Square, Bucharest, Romania", "lat": 44.4353423, "lon": 26.1025347, "location_id": "/title/tt3766354/filminglocations/lc1597527"}, {"location_name": "Arcul de Triumf, Bucharest, Romania", "lat": 44.467170100000004, "lon": 26.07812345, "location_id": "/title/tt3766354/filminglocations/lc1484619"}, {"location_name": "Carpathian Mountains, Romania", "lat": 47.0005707, "lon": 25.5017192, "location_id": "/title/tt3766354/filminglocations/lc1595959"}, {"location_name": "Acton Lane Power Station, Acton Lane, Acton, London, England, UK", "lat": 51.5027364, "lon": -0.2654421, "location_id": "/title/tt3766354/filminglocations/lc1595958"}, {"location_name": "Long Process Stage, Pinewood Studios, Iver Heath, Buckinghamshire, England, UK", "lat": 51.53642, "lon": -0.5179, "location_id": "/title/tt3766354/filminglocations/lc1595956"}, {"location_name": "S Stage, Pinewood Studios, Iver Heath, Buckinghamshire, England, UK", "lat": 51.53642, "lon": -0.5179, "location_id": "/title/tt3766354/filminglocations/lc1983780"}, {"location_name": "Disney-MGM Studios - 351 South Studio Drive, Bay Lake, Florida, USA", "lat": 28.3572521, "lon": -81.5606174711873, "location_id": "/title/tt3766354/filminglocations/lc2246889"}]}, "tt10676048": {"id": "tt10676048", "locations": [{"location_name": "Anzio, Lazio, Italy", "lat": 41.4471008, "lon": 12.6285618, "location_id": "/title/tt10676048/filminglocations/lc2259169"}, {"location_name": "Canale Monterano, Rome, Lazio, Italy", "lat": 42.136043, "lon": 12.1030665, "location_id": "/title/tt10676048/filminglocations/lc2283004"}, {"location_name": "Durango, Mexico", "lat": 24.022008, "lon": -104.654741, "location_id": "/title/tt10676048/filminglocations/lc2178244"}, {"location_name": "Frosinone, Lazio, Italy", "lat": 41.6419807, "lon": 13.3469287, "location_id": "/title/tt10676048/filminglocations/lc2179040"}, {"location_name": "Metro-Goldwyn-Mayer Studios - 10202 W. Washington Blvd., Culver City, California, USA", "lat": 34.016999, "lon": -118.403816, "location_id": "/title/tt10676048/filminglocations/lc2186397"}, {"location_name": "Fogliano, Latina, Lazio, Italy", "lat": 41.3968641, "lon": 12.9155836, "location_id": "/title/tt10676048/filminglocations/lc2186398"}, {"location_name": "Fort MacLeod, Alberta, Canada", "lat": 49.7257719, "lon": -113.405385, "location_id": "/title/tt10676048/filminglocations/lc2775464"}, {"location_name": "Drumheller, Alberta, Canada", "lat": 51.4662795, "lon": -112.7046642, "location_id": "/title/tt10676048/filminglocations/lc2775465"}]}, "tt3215824": {"id": "tt3215824", "locations": [{"location_name": "Beiseker, Alberta, Canada", "lat": 51.3852192, "lon": -113.5383076, "location_id": "/title/tt3215824/filminglocations/lc1796876"}, {"location_name": "Dorothy, Alberta, Canada", "lat": 51.2809765, "lon": -112.3223963, "location_id": "/title/tt3215824/filminglocations/lc1796877"}, {"location_name": "Del Bonita, Alberta, Canada", "lat": 49.03327, "lon": -112.80184, "location_id": "/title/tt3215824/filminglocations/lc1788080"}, {"location_name": "Cinespace Film Studios, Toronto, Ontario, Canada", "lat": 43.6300234, "lon": -79.52817571309554, "location_id": "/title/tt3215824/filminglocations/lc1796878"}]}, "tt13086266": {"id": "tt13086266", "locations": [{"location_name": "Belize", "lat": 16.8259793, "lon": -88.7600927, "location_id": "/title/tt13086266/filminglocations/lc3462225"}]}, "tt1856101": {"id": "tt1856101", "locations": [{"location_name": "Costa Rica", "lat": 10.2735633, "lon": -84.0739102, "location_id": "/title/tt1856101/filminglocations/lc1464012"}, {"location_name": "Texas, USA", "lat": 31.2638905, "lon": -98.5456116, "location_id": "/title/tt1856101/filminglocations/lc1216622"}, {"location_name": "Perth and Kinross, Scotland, UK", "lat": 56.5, "lon": -3.75, "location_id": "/title/tt1856101/filminglocations/lc1403756"}, {"location_name": "Berkhamsted, Hertfordshire, England, UK", "lat": 51.75514375, "lon": -0.5557681023902674, "location_id": "/title/tt1856101/filminglocations/lc1472355"}, {"location_name": "Tring, Hertfordshire, England, UK", "lat": 51.7940357, "lon": -0.6609205, "location_id": "/title/tt1856101/filminglocations/lc1472356"}, {"location_name": "Cerritos, California, USA", "lat": 33.871295, "lon": -118.055856, "location_id": "/title/tt1856101/filminglocations/lc1403755"}, {"location_name": "Indio, California, USA", "lat": 33.7192808, "lon": -116.2188054, "location_id": "/title/tt1856101/filminglocations/lc1461580"}, {"location_name": "Stockholm, Sweden", "lat": 59.3251172, "lon": 18.0710935, "location_id": "/title/tt1856101/filminglocations/lc1464208"}, {"location_name": "Oslo, Norway", "lat": 59.9133301, "lon": 10.7389701, "location_id": "/title/tt1856101/filminglocations/lc1464207"}, {"location_name": "Manchester, England, UK", "lat": 53.4794892, "lon": -2.2451148, "location_id": "/title/tt1856101/filminglocations/lc2916373"}]}, "tt13978520": {"id": "tt13978520", "locations": [{"location_name": "Mexicali, Baja California, M\u00e9xico", "lat": 32.6405247, "lon": -115.474899, "location_id": "/title/tt13978520/filminglocations/lc2952131"}]}, "tt8367814": {"id": "tt8367814", "locations": [{"location_name": "Inyo County, California, USA", "lat": 36.5595325, "lon": -117.4074712, "location_id": "/title/tt8367814/filminglocations/lc1877456"}, {"location_name": "Djemaa el Fna, Marrakech, Morocco", "lat": 31.6258306, "lon": -7.988919740137357, "location_id": "/title/tt8367814/filminglocations/lc1893191"}, {"location_name": "Jebel Musa, Morocco", "lat": 35.8989516, "lon": -5.4129554, "location_id": "/title/tt8367814/filminglocations/lc1701895"}, {"location_name": "Mentmore Towers, Mentmore, Buckinghamshire, England, UK", "lat": 51.868305, "lon": -0.690493, "location_id": "/title/tt8367814/filminglocations/lc2029237"}, {"location_name": "Glen Canyon, Arizona, USA", "lat": 36.926984, "lon": -111.453941, "location_id": "/title/tt8367814/filminglocations/lc2211763"}, {"location_name": "Royal Naval Base, Chatham, Kent, England, UK", "lat": 51.5053505, "lon": -0.1290373, "location_id": "/title/tt8367814/filminglocations/lc2211807"}, {"location_name": "Ksar Medenine, Medenine, Tunisia", "lat": 33.2678102, "lon": 10.1993777, "location_id": "/title/tt8367814/filminglocations/lc2220895"}, {"location_name": "Whippendell Wood, Watford, Hertfordshire, England, UK", "lat": 51.66737435, "lon": -0.44204346173872366, "location_id": "/title/tt8367814/filminglocations/lc2220901"}, {"location_name": "Ksar Hadada, Tataouine, Tunisia", "lat": 33.1004153, "lon": 10.3119203, "location_id": "/title/tt8367814/filminglocations/lc2220893"}, {"location_name": "Livermore, California, USA", "lat": 37.6820583, "lon": -121.768053, "location_id": "/title/tt8367814/filminglocations/lc2220894"}, {"location_name": "Leavesden, Hertfordshire, England, UK", "lat": 51.6913926, "lon": -0.4144152, "location_id": "/title/tt8367814/filminglocations/lc2220896"}, {"location_name": "Coconino National Forest, Arizona, USA", "lat": 34.9455958, "lon": -111.43300181152304, "location_id": "/title/tt8367814/filminglocations/lc2220897"}, {"location_name": "Baton Rouge, Louisiana, USA", "lat": 30.4494155, "lon": -91.1869659, "location_id": "/title/tt8367814/filminglocations/lc2220898"}, {"location_name": "Ghost Ranch, Abiquiu, New Mexico, USA", "lat": 36.3393494, "lon": -106.4690229329567, "location_id": "/title/tt8367814/filminglocations/lc2220899"}, {"location_name": "Galisteo, New Mexico, USA", "lat": 35.3952637, "lon": -105.947079, "location_id": "/title/tt8367814/filminglocations/lc2220900"}, {"location_name": "Valles Caldera, New Mexico, USA", "lat": 32.209648, "lon": -106.706777, "location_id": "/title/tt8367814/filminglocations/lc2220902"}, {"location_name": "Plaza Blanca, Abiquiu, New Mexico, USA", "lat": 35.636542, "lon": -105.987815, "location_id": "/title/tt8367814/filminglocations/lc2220903"}, {"location_name": "Jackson, Louisiana, USA", "lat": 30.8374, "lon": -91.21761, "location_id": "/title/tt8367814/filminglocations/lc3452920"}]}, "tt12593682": {"id": "tt12593682", "locations": [{"location_name": "Santa Fe Studios, Santa Fe, New Mexico, USA", "lat": 35.56834055, "lon": -106.04715995307225, "location_id": "/title/tt12593682/filminglocations/lc2608498"}, {"location_name": "Nottoway Plantation, White Castle, Louisiana, USA", "lat": 30.1847827, "lon": -91.16707425413784, "location_id": "/title/tt12593682/filminglocations/lc2110154"}, {"location_name": "Aviemore, Highland, Scotland, UK", "lat": 57.1937528, "lon": -3.8287496, "location_id": "/title/tt12593682/filminglocations/lc2202498"}, {"location_name": "Langvann, Oslo, Norway", "lat": 60.0404283, "lon": 10.724347919677415, "location_id": "/title/tt12593682/filminglocations/lc2110155"}, {"location_name": "Inverness, Highland, Scotland, UK", "lat": 57.4790124, "lon": -4.225739, "location_id": "/title/tt12593682/filminglocations/lc3259964"}]}, "tt1345836": {"id": "tt1345836", "locations": [{"location_name": "Kalsoy, Faroe Islands", "lat": 62.24243, "lon": -6.66047, "location_id": "/title/tt1345836/filminglocations/lc0314566"}, {"location_name": "Harbour Street, Port Antonio, Portland, Jamaica", "lat": 18.1768436, "lon": -76.4498536, "location_id": "/title/tt1345836/filminglocations/lc0314580"}, {"location_name": "Pall Mall, St James's, Westminster, Greater London, England, UK", "lat": 51.5051438, "lon": -0.1377153, "location_id": "/title/tt1345836/filminglocations/lc0314573"}, {"location_name": "Isle of Wight, England, UK", "lat": 50.6710482, "lon": -1.3327111133199459, "location_id": "/title/tt1345836/filminglocations/lc0753354"}, {"location_name": "Atlanterhavsveien, M\u00f8re og Romsdal, Norway", "lat": 63.009982, "lon": 7.432371, "location_id": "/title/tt1345836/filminglocations/lc1042936"}, {"location_name": "Gravina in Puglia, Bari, Apulia, Italy", "lat": 40.819725, "lon": 16.422779, "location_id": "/title/tt1345836/filminglocations/lc0314561"}, {"location_name": "Nittedal, Norway", "lat": 60.08045425, "lon": 10.856610881659574, "location_id": "/title/tt1345836/filminglocations/lc0314555"}, {"location_name": "Marina di Pisticci, Matera, Basilicata, Italy", "lat": 40.2966412, "lon": 16.7824438, "location_id": "/title/tt1345836/filminglocations/lc0314572"}, {"location_name": "Highlands, Scotland, UK", "lat": 57.2490341, "lon": -2.2103049, "location_id": "/title/tt1345836/filminglocations/lc0642636"}, {"location_name": "Ardverikie Estate, Kinloch Laggan, Newtonmore, Highland, Scotland, UK", "lat": 56.974626, "lon": -4.386000295682102, "location_id": "/title/tt1345836/filminglocations/lc0314562"}, {"location_name": "Acquedotto Madonna della Stella, Gravina in Puglia, Bari, Apulia, Italy", "lat": 40.820071, "lon": 16.413117, "location_id": "/title/tt1345836/filminglocations/lc0314557"}, {"location_name": "Whitehall, Westminster, Greater London, England, UK", "lat": 51.502814, "lon": -0.126064, "location_id": "/title/tt1345836/filminglocations/lc0618036"}, {"location_name": "Trollanes, Faroe Islands", "lat": 62.3612244, "lon": -6.7888073, "location_id": "/title/tt1345836/filminglocations/lc0854670"}, {"location_name": "Cairngorms National Park, Scotland, UK", "lat": 57.07564075, "lon": -3.613170846988315, "location_id": "/title/tt1345836/filminglocations/lc0314574"}, {"location_name": "Hammersmith Bridge, Hammersmith, London, Greater London, England, UK", "lat": 51.4875595, "lon": -0.2310922, "location_id": "/title/tt1345836/filminglocations/lc0314576"}, {"location_name": "Sapri, Salerno, Campania, Italy", "lat": 40.0750785, "lon": 15.6297747, "location_id": "/title/tt1345836/filminglocations/lc0642635"}, {"location_name": "Via Muro, Matera, Basilicata, Italy", "lat": 40.6657439, "lon": 16.6116817, "location_id": "/title/tt1345836/filminglocations/lc0780711"}, {"location_name": "Piazza San Pietro Caveoso, Matera, Basilicata, Italy", "lat": 40.6647426, "lon": 16.6118988, "location_id": "/title/tt1345836/filminglocations/lc0314558"}, {"location_name": "RAF Brize Norton, Oxfordshire, England, UK", "lat": 51.7684484, "lon": -1.572481839367076, "location_id": "/title/tt1345836/filminglocations/lc0314570"}, {"location_name": "Horse Guards Avenue, Westminster, Greater London, England, UK", "lat": 51.5049871, "lon": -0.1254769, "location_id": "/title/tt1345836/filminglocations/lc0314577"}, {"location_name": "The Mall, St James's, Westminster, Greater London, England, UK", "lat": 51.5042691, "lon": -0.1347305, "location_id": "/title/tt1345836/filminglocations/lc0780712"}, {"location_name": "Trollanes, Kalsoy Island, Faroe Islands", "lat": 62.3612244, "lon": -6.7888073, "location_id": "/title/tt1345836/filminglocations/lc0780710"}, {"location_name": "Nordm\u00f8re, M\u00f8re og Romsdal, Norway", "lat": 63.1249265, "lon": 7.718275552884474, "location_id": "/title/tt1345836/filminglocations/lc0314556"}, {"location_name": "Via XX Settembre, Matera, Basilicata, Italy", "lat": 40.6702462, "lon": 16.6062655, "location_id": "/title/tt1345836/filminglocations/lc2124818"}, {"location_name": "Rione Pianelle, Matera, Basilicata, Italy", "lat": 40.6652778, "lon": 16.6119456, "location_id": "/title/tt1345836/filminglocations/lc0314565"}, {"location_name": "Ponte Acquedotto, Gravina in Puglia, Bari, Apulia, Italy", "lat": 40.819982, "lon": 16.413719, "location_id": "/title/tt1345836/filminglocations/lc0314571"}, {"location_name": "Centaur Street, London, Greater London, England, UK", "lat": 51.4978371, "lon": -0.1136503, "location_id": "/title/tt1345836/filminglocations/lc0904443"}, {"location_name": "Kallur Lighthouse, Kallur, Kalsoy, Faroe Islands", "lat": 62.37043, "lon": -6.81007, "location_id": "/title/tt1345836/filminglocations/lc1866833"}, {"location_name": "Whitehall Court, Westminster, Greater London, England, UK", "lat": 51.50543315, "lon": -0.12434214606594883, "location_id": "/title/tt1345836/filminglocations/lc0314579"}, {"location_name": "Ministry of Defence, Horse Guards Avenue, Westminster, Greater London, England, UK", "lat": 51.50399655, "lon": -0.12485613044953955, "location_id": "/title/tt1345836/filminglocations/lc0636472"},